{
"type": "FeatureCollection",
"name": "CCTV_Locations_Cameras",
"crs": { "type": "name", "properties": { "name": "urn:ogc:def:crs:OGC:1.3:CRS84" } },
"features": [
{ "type": "Feature", "properties": { "OBJECTID": 1, "Id": 0, "CAM_NUM": "1", "NOTES": " ", "LOCATION": "Eutaw and Lexington Market", "PROJ": "Downtown", "XCOORD": 1419616.69916792, "YCOORD": 591850.21320466697, "GlobalID": "08ecb507-92a1-49e0-9bd3-463870747cc2" }, "geometry": { "type": "Point", "coordinates": [ -76.620950222059506, 39.291162119955601 ] } },
{ "type": "Feature", "properties": { "OBJECTID": 2, "Id": 0, "CAM_NUM": "2", "NOTES": " ", "LOCATION": "Eutaw and Fayette", "PROJ": "Downtown", "XCOORD": 1419639.33166859, "YCOORD": 591545.99432492303, "GlobalID": "d7af0982-5637-43e3-b98a-27430b8959de" }, "geometry": { "type": "Point", "coordinates": [ -76.620874722043197, 39.290326636932797 ] } },
{ "type": "Feature", "properties": { "OBJECTID": 3, "Id": 0, "CAM_NUM": "3", "NOTES": " ", "LOCATION": "Eutaw and Baltimore", "PROJ": "Downtown", "XCOORD": 1419663.1702036001, "YCOORD": 591202.48451325297, "GlobalID": "91aeaf7f-0484-4460-8007-f1d251d93041" }, "geometry": { "type": "Point", "coordinates": [ -76.620795539445893, 39.289383267630001 ] } },
{ "type": "Feature", "properties": { "OBJECTID": 4, "Id": 0, "CAM_NUM": "4", "NOTES": " ", "LOCATION": "Eutaw and Redwood", "PROJ": "Downtown", "XCOORD": 1419612.3455020899, "YCOORD": 590914.842043921, "GlobalID": "e042f38b-efe3-4b96-8831-f84244941b2d" }, "geometry": { "type": "Point", "coordinates": [ -76.620979325400299, 39.288594131816502 ] } },
{ "type": "Feature", "properties": { "OBJECTID": 5, "Id": 0, "CAM_NUM": "5", "NOTES": " ", "LOCATION": "Eutaw and Lombard", "PROJ": "Downtown", "XCOORD": 1419685.3371540001, "YCOORD": 590559.57339750195, "GlobalID": "10731343-a781-42e2-9fdf-c958baf1f041" }, "geometry": { "type": "Point", "coordinates": [ -76.620726659435306, 39.287617917954798 ] } },
{ "type": "Feature", "properties": { "OBJECTID": 6, "Id": 0, "CAM_NUM": "6", "NOTES": " ", "LOCATION": "Eutaw and Camden", "PROJ": "Downtown", "XCOORD": 1419645.7079681801, "YCOORD": 589712.14169342804, "GlobalID": "98e07939-4c4d-40e1-8de7-b200ea1063a9" }, "geometry": { "type": "Point", "coordinates": [ -76.620879101979995, 39.285291765318703 ] } },
{ "type": "Feature", "properties": { "OBJECTID": 7, "Id": 0, "CAM_NUM": "7", "NOTES": " ", "LOCATION": "Paca and Pratt", "PROJ": "Downtown", "XCOORD": 1419271.3940842601, "YCOORD": 590099.04413484002, "GlobalID": "f1098059-e92c-4751-93ce-8ad6edbc5dd2" }, "geometry": { "type": "Point", "coordinates": [ -76.622195841102894, 39.2863582579566 ] } },
{ "type": "Feature", "properties": { "OBJECTID": 8, "Id": 0, "CAM_NUM": "8", "NOTES": " ", "LOCATION": "Greene and Lombard", "PROJ": "Downtown", "XCOORD": 1418842.1167275901, "YCOORD": 590458.91808700596, "GlobalID": "fdf7fe52-07c6-417d-a82d-37d583da4f3a" }, "geometry": { "type": "Point", "coordinates": [ -76.623707197163498, 39.287351151579003 ] } },
{ "type": "Feature", "properties": { "OBJECTID": 9, "Id": 0, "CAM_NUM": "9", "NOTES": " ", "LOCATION": "Greene and Baltimore", "PROJ": "Downtown", "XCOORD": 1418811.14730135, "YCOORD": 591105.251111925, "GlobalID": "079ff31f-6114-44b1-a910-b7c070fed2c6" }, "geometry": { "type": "Point", "coordinates": [ -76.6238072008003, 39.289125994008302 ] } },
{ "type": "Feature", "properties": { "OBJECTID": 10, "Id": 0, "CAM_NUM": "10", "NOTES": " ", "LOCATION": "Greene and Fayette", "PROJ": "Downtown", "XCOORD": 1418798.9042155901, "YCOORD": 591550.12423792505, "GlobalID": "47fa735d-0b60-4457-a2bb-49c8d221536e" }, "geometry": { "type": "Point", "coordinates": [ -76.623843979714394, 39.290347520598203 ] } },
{ "type": "Feature", "properties": { "OBJECTID": 11, "Id": 0, "CAM_NUM": "11", "NOTES": " ", "LOCATION": "Greene and Lexington", "PROJ": "Downtown", "XCOORD": 1418791.03644918, "YCOORD": 591941.26912492502, "GlobalID": "84eddb32-7d6b-41d5-8c33-9be55e9c2223" }, "geometry": { "type": "Point", "coordinates": [ -76.623866083320394, 39.291421487774301 ] } },
{ "type": "Feature", "properties": { "OBJECTID": 12, "Id": 0, "CAM_NUM": "12", "NOTES": " ", "LOCATION": "N Paca St and W Fayette St", "PROJ": "Downtown", "XCOORD": 1419249.7163060899, "YCOORD": 591585.91255217802, "GlobalID": "98716e3d-905b-4043-ba06-25686a80f1c5" }, "geometry": { "type": "Point", "coordinates": [ -76.622250690032004, 39.290440665761899 ] } },
{ "type": "Feature", "properties": { "OBJECTID": 13, "Id": 0, "CAM_NUM": "13", "NOTES": " ", "LOCATION": "S Howard St and W Lombard St", "PROJ": "Downtown", "XCOORD": 1420119.78674443, "YCOORD": 590511.14173583698, "GlobalID": "a723eae3-241c-404b-a563-5955034ada82" }, "geometry": { "type": "Point", "coordinates": [ -76.619192476450607, 39.287479984381498 ] } },
{ "type": "Feature", "properties": { "OBJECTID": 14, "Id": 0, "CAM_NUM": "14", "NOTES": " ", "LOCATION": "S Howard St and W Pratt St", "PROJ": "Downtown", "XCOORD": 1420090.46035951, "YCOORD": 590026.35103875399, "GlobalID": "59404413-c729-486a-8f31-ba0aa1b4ebb8" }, "geometry": { "type": "Point", "coordinates": [ -76.619303228046704, 39.286149338540802 ] } },
{ "type": "Feature", "properties": { "OBJECTID": 15, "Id": 0, "CAM_NUM": "15", "NOTES": " ", "LOCATION": "S Howard St and W Camden St", "PROJ": "Downtown", "XCOORD": 1420165.4949863399, "YCOORD": 589749.66228766704, "GlobalID": "69788b84-ad61-432e-b315-9239a3633b97" }, "geometry": { "type": "Point", "coordinates": [ -76.619042217832899, 39.285388836341497 ] } },
{ "type": "Feature", "properties": { "OBJECTID": 16, "Id": 0, "CAM_NUM": "16", "NOTES": " ", "LOCATION": "S Hanover and W Pratt St", "PROJ": "Downtown", "XCOORD": 1420933.5252744299, "YCOORD": 590109.77508450998, "GlobalID": "482b470c-ccc9-47b1-abe4-3086fe990c8e" }, "geometry": { "type": "Point", "coordinates": [ -76.616323529522305, 39.286368687029501 ] } },
{ "type": "Feature", "properties": { "OBJECTID": 17, "Id": 0, "CAM_NUM": "17", "NOTES": " ", "LOCATION": "Hopkins Pl and W Lombard St", "PROJ": "Downtown", "XCOORD": 1420497.9483896799, "YCOORD": 590603.12514767097, "GlobalID": "cf67413c-ba3f-4edd-92d9-d306929542e0" }, "geometry": { "type": "Point", "coordinates": [ -76.617855085536206, 39.287728184076002 ] } },
{ "type": "Feature", "properties": { "OBJECTID": 18, "Id": 0, "CAM_NUM": "18", "NOTES": " ", "LOCATION": "Park Ave and W Baltimore St", "PROJ": "Downtown", "XCOORD": 1420418.886868, "YCOORD": 591248.14157417405, "GlobalID": "20fb4ca0-3230-41ac-b822-88003415b97d" }, "geometry": { "type": "Point", "coordinates": [ -76.618124875115598, 39.289499969047 ] } },
{ "type": "Feature", "properties": { "OBJECTID": 19, "Id": 0, "CAM_NUM": "19", "NOTES": " ", "LOCATION": "S Howard St and W Baltimore St", "PROJ": "Downtown", "XCOORD": 1420021.9332655999, "YCOORD": 591174.90910908603, "GlobalID": "68f83c8c-5e1c-4989-bcc3-01e5ad3eb190" }, "geometry": { "type": "Point", "coordinates": [ -76.619528415305297, 39.289303461712699 ] } },
{ "type": "Feature", "properties": { "OBJECTID": 20, "Id": 0, "CAM_NUM": "20", "NOTES": " ", "LOCATION": "N Howard St and W Fayette St", "PROJ": "Downtown", "XCOORD": 1420006.1239140001, "YCOORD": 591556.38209941995, "GlobalID": "445e1eb4-4925-4517-a9d3-c179c4ab5855" }, "geometry": { "type": "Point", "coordinates": [ -76.619578654115401, 39.290350966956503 ] } },
{ "type": "Feature", "properties": { "OBJECTID": 21, "Id": 0, "CAM_NUM": "21", "NOTES": " ", "LOCATION": "N Howard St and W Lexington St", "PROJ": "Downtown", "XCOORD": 1419979.4963425801, "YCOORD": 592019.560635, "GlobalID": "233b6347-a6af-4bc6-ba0f-bc789a156844" }, "geometry": { "type": "Point", "coordinates": [ -76.619665914160194, 39.291622915977598 ] } },
{ "type": "Feature", "properties": { "OBJECTID": 22, "Id": 0, "CAM_NUM": "22", "NOTES": " ", "LOCATION": "Park Ave and W Lexington St", "PROJ": "Downtown", "XCOORD": 1420459.25981876, "YCOORD": 592053.88832224905, "GlobalID": "b6f2958d-ba79-4754-8cd7-71971700ddd2" }, "geometry": { "type": "Point", "coordinates": [ -76.617970321704604, 39.291711661738802 ] } },
{ "type": "Feature", "properties": { "OBJECTID": 23, "Id": 0, "CAM_NUM": "23", "NOTES": " ", "LOCATION": "N Liberty St and W Lexington St", "PROJ": "Downtown", "XCOORD": 1420654.7197296801, "YCOORD": 591992.31167375995, "GlobalID": "9cb5009a-c2b0-41dd-8481-e68f8860200c" }, "geometry": { "type": "Point", "coordinates": [ -76.617280640293998, 39.291540356979397 ] } },
{ "type": "Feature", "properties": { "OBJECTID": 24, "Id": 0, "CAM_NUM": "24", "NOTES": " ", "LOCATION": "N Liberty St and W Fayette St", "PROJ": "Downtown", "XCOORD": 1420508.9975801699, "YCOORD": 591584.44405117596, "GlobalID": "aad51aa4-2de4-494b-bb3f-d50fec5dc43c" }, "geometry": { "type": "Point", "coordinates": [ -76.617801533819005, 39.290422243468001 ] } },
{ "type": "Feature", "properties": { "OBJECTID": 25, "Id": 0, "CAM_NUM": "25", "NOTES": " ", "LOCATION": "Park Ave and W Fayette St", "PROJ": "Downtown", "XCOORD": 1420491.36802226, "YCOORD": 591643.31762108195, "GlobalID": "b0c0592f-0100-4322-abbc-30958ba94e50" }, "geometry": { "type": "Point", "coordinates": [ -76.617862950228002, 39.290584081932501 ] } },
{ "type": "Feature", "properties": { "OBJECTID": 26, "Id": 0, "CAM_NUM": "26", "NOTES": " ", "LOCATION": "N Liberty St and Clay St", "PROJ": "Downtown", "XCOORD": 1420742.9272304201, "YCOORD": 592274.70218509401, "GlobalID": "f45b03ce-e030-439a-a37f-044acc539c78" }, "geometry": { "type": "Point", "coordinates": [ -76.616964802405207, 39.292314636644797 ] } },
{ "type": "Feature", "properties": { "OBJECTID": 27, "Id": 0, "CAM_NUM": "27", "NOTES": " ", "LOCATION": "Cathedral St and W Saratoga St", "PROJ": "Downtown", "XCOORD": 1420842.7200098301, "YCOORD": 592555.42570500099, "GlobalID": "74d95aff-d76e-4528-94e4-5c4c1dedb6f4" }, "geometry": { "type": "Point", "coordinates": [ -76.616608048780193, 39.293084205028798 ] } },
{ "type": "Feature", "properties": { "OBJECTID": 28, "Id": 0, "CAM_NUM": "28", "NOTES": " ", "LOCATION": "Cathedral St and W Mulberry St", "PROJ": "Downtown", "XCOORD": 1420814.73975085, "YCOORD": 592929.18906508398, "GlobalID": "4aea5b46-2003-477f-b6e8-79d25d6b7da4" }, "geometry": { "type": "Point", "coordinates": [ -76.616701364894894, 39.2941106840834 ] } },
{ "type": "Feature", "properties": { "OBJECTID": 29, "Id": 0, "CAM_NUM": "29", "NOTES": " ", "LOCATION": "N Charles St and E Mulberry St", "PROJ": "Downtown", "XCOORD": 1421193.35021409, "YCOORD": 592918.07819491602, "GlobalID": "27fb980c-c1b1-4ab4-aeb3-84545b367182" }, "geometry": { "type": "Point", "coordinates": [ -76.615363789231395, 39.294075807440002 ] } },
{ "type": "Feature", "properties": { "OBJECTID": 30, "Id": 0, "CAM_NUM": "30", "NOTES": " ", "LOCATION": "Cathedral St and W Franklin St", "PROJ": "Downtown", "XCOORD": 1420722.72648342, "YCOORD": 593296.46293683397, "GlobalID": "494bb6b2-4e72-4c4e-be0f-1f5e9a93d382" }, "geometry": { "type": "Point", "coordinates": [ -76.617021030472003, 39.295120083801798 ] } },
{ "type": "Feature", "properties": { "OBJECTID": 31, "Id": 0, "CAM_NUM": "31", "NOTES": " ", "LOCATION": "Park Ave and W Franklin St", "PROJ": "Downtown", "XCOORD": 1420348.9362205099, "YCOORD": 593293.59876933706, "GlobalID": "31815bc7-2e3f-43ce-adf2-8141fb59d3f5" }, "geometry": { "type": "Point", "coordinates": [ -76.618341801658303, 39.2951165181939 ] } },
{ "type": "Feature", "properties": { "OBJECTID": 32, "Id": 0, "CAM_NUM": "32", "NOTES": " ", "LOCATION": "Park Ave and W Mulberry St", "PROJ": "Downtown", "XCOORD": 1420371.7278415901, "YCOORD": 592932.23433458805, "GlobalID": "82b242f3-c08c-4610-8fa7-408495727bfa" }, "geometry": { "type": "Point", "coordinates": [ -76.618266610255901, 39.294124141208698 ] } },
{ "type": "Feature", "properties": { "OBJECTID": 33, "Id": 0, "CAM_NUM": "33", "NOTES": " ", "LOCATION": "Park Ave and W Saratoga St", "PROJ": "Downtown", "XCOORD": 1420449.4097728401, "YCOORD": 592488.64073358499, "GlobalID": "21567e54-e960-43c4-89f1-d3a03494ac10" }, "geometry": { "type": "Point", "coordinates": [ -76.6179986959133, 39.292905375582102 ] } },
{ "type": "Feature", "properties": { "OBJECTID": 34, "Id": 0, "CAM_NUM": "34", "NOTES": " ", "LOCATION": "N Howard St and W Saratoga St", "PROJ": "Downtown", "XCOORD": 1420001.70988084, "YCOORD": 592443.39213642501, "GlobalID": "8ab4fd56-cec7-4c35-8f45-5e0690cdbf4b" }, "geometry": { "type": "Point", "coordinates": [ -76.619581189723903, 39.292786279605998 ] } },
{ "type": "Feature", "properties": { "OBJECTID": 35, "Id": 0, "CAM_NUM": "35", "NOTES": " ", "LOCATION": "N Howard St and W Mulberry St", "PROJ": "Downtown", "XCOORD": 1419981.4881364999, "YCOORD": 592908.12152191997, "GlobalID": "fb79100e-04ad-4418-a564-289c113e83db" }, "geometry": { "type": "Point", "coordinates": [ -76.619645796338105, 39.294062412238397 ] } },
{ "type": "Feature", "properties": { "OBJECTID": 36, "Id": 0, "CAM_NUM": "36", "NOTES": " ", "LOCATION": "N Howard St and W Franklin St", "PROJ": "Downtown", "XCOORD": 1419961.7965748501, "YCOORD": 593277.48954959202, "GlobalID": "d3c649fb-bb3c-4971-8f36-36fe280954ce" }, "geometry": { "type": "Point", "coordinates": [ -76.619709935602799, 39.2950767265298 ] } },
{ "type": "Feature", "properties": { "OBJECTID": 37, "Id": 0, "CAM_NUM": "37", "NOTES": " ", "LOCATION": "N Howard St and W Centre St", "PROJ": "Downtown", "XCOORD": 1419935.46001334, "YCOORD": 593716.003436342, "GlobalID": "27009ef9-f2d4-497a-977d-ad918a5e5d63" }, "geometry": { "type": "Point", "coordinates": [ -76.619796538527794, 39.296280954293699 ] } },
{ "type": "Feature", "properties": { "OBJECTID": 38, "Id": 0, "CAM_NUM": "38", "NOTES": " ", "LOCATION": "N Eutaw St and George St", "PROJ": "Downtown", "XCOORD": 1419523.57140142, "YCOORD": 593555.22521458601, "GlobalID": "1cb15c81-c27a-4517-8ed3-b090da71154b" }, "geometry": { "type": "Point", "coordinates": [ -76.621254262874203, 39.295844243299896 ] } },
{ "type": "Feature", "properties": { "OBJECTID": 39, "Id": 0, "CAM_NUM": "39", "NOTES": " ", "LOCATION": "S Paca St and W Baltimore St", "PROJ": "Downtown", "XCOORD": 1419214.27280742, "YCOORD": 591191.20763292897, "GlobalID": "2695cec7-5c59-43ef-84b4-61cbfdfd3cf2" }, "geometry": { "type": "Point", "coordinates": [ -76.622381684349506, 39.289357415962897 ] } },
{ "type": "Feature", "properties": { "OBJECTID": 40, "Id": 0, "CAM_NUM": "40", "NOTES": " ", "LOCATION": "N Eutaw St and W Saratoga", "PROJ": "Downtown", "XCOORD": 1419581.9252873401, "YCOORD": 592492.73586975003, "GlobalID": "d5ad74f2-e854-4fb2-998d-b23ddd60edda" }, "geometry": { "type": "Point", "coordinates": [ -76.621063659998498, 39.292926544834302 ] } },
{ "type": "Feature", "properties": { "OBJECTID": 41, "Id": 0, "CAM_NUM": "41", "NOTES": " ", "LOCATION": "N Paca St and W Saratoga St", "PROJ": "Downtown", "XCOORD": 1419146.6928900899, "YCOORD": 592467.09057983803, "GlobalID": "0a5db2a9-e5ee-4a13-a24e-48c074c748fb" }, "geometry": { "type": "Point", "coordinates": [ -76.622601812295798, 39.292861086412998 ] } },
{ "type": "Feature", "properties": { "OBJECTID": 42, "Id": 0, "CAM_NUM": "42", "NOTES": " ", "LOCATION": "N Paca St and W Mulberry St", "PROJ": "Downtown", "XCOORD": 1419199.04678801, "YCOORD": 592795.97574883699, "GlobalID": "80b0dea0-ed2f-40b9-8027-eb4aa4b9aa6b" }, "geometry": { "type": "Point", "coordinates": [ -76.622412027538601, 39.293763437056498 ] } },
{ "type": "Feature", "properties": { "OBJECTID": 43, "Id": 0, "CAM_NUM": "43", "NOTES": " ", "LOCATION": "N Paca St and W Lexington St", "PROJ": "Downtown", "XCOORD": 1419233.32755934, "YCOORD": 591916.89975108195, "GlobalID": "3ef48bc1-f440-46a3-9ee3-84530ea87821" }, "geometry": { "type": "Point", "coordinates": [ -76.622303754948504, 39.291349568664003 ] } },
{ "type": "Feature", "properties": { "OBJECTID": 44, "Id": 0, "CAM_NUM": "44", "NOTES": " ", "LOCATION": "N Greene St and W Franklin St", "PROJ": "Downtown", "XCOORD": 1418713.26265459, "YCOORD": 593135.104663759, "GlobalID": "0bb7af62-9932-4bf5-ae8b-0d9adce14edc" }, "geometry": { "type": "Point", "coordinates": [ -76.624123503012996, 39.294700009746499 ] } },
{ "type": "Feature", "properties": { "OBJECTID": 45, "Id": 0, "CAM_NUM": "45", "NOTES": " ", "LOCATION": "N Greene St and W Saratoga St", "PROJ": "Downtown", "XCOORD": 1418772.1024319199, "YCOORD": 592382.82926541602, "GlobalID": "829b3b87-548c-4025-919d-6510af8c874e" }, "geometry": { "type": "Point", "coordinates": [ -76.623926553191296, 39.292633993476102 ] } },
{ "type": "Feature", "properties": { "OBJECTID": 46, "Id": 0, "CAM_NUM": "46", "NOTES": " ", "LOCATION": "N Eutaw St and W Franklin St", "PROJ": "Downtown", "XCOORD": 1419485.00454943, "YCOORD": 593229.13892450905, "GlobalID": "bfafe6a9-5dd4-4e58-9e35-3df1f5f14d32" }, "geometry": { "type": "Point", "coordinates": [ -76.621395312677805, 39.294949422354001 ] } },
{ "type": "Feature", "properties": { "OBJECTID": 47, "Id": 0, "CAM_NUM": "47", "NOTES": " ", "LOCATION": "N Eutaw St and Druid Hill Ave", "PROJ": "Downtown", "XCOORD": 1419466.46816917, "YCOORD": 593811.00685524906, "GlobalID": "dd671c2c-10b1-4f82-be47-be2d8a930871" }, "geometry": { "type": "Point", "coordinates": [ -76.621452282524103, 39.296547134256301 ] } },
{ "type": "Feature", "properties": { "OBJECTID": 48, "Id": 0, "CAM_NUM": "48", "NOTES": " ", "LOCATION": "N Eutaw St and W Mulberry St", "PROJ": "Downtown", "XCOORD": 1419563.8249298299, "YCOORD": 592819.54459933902, "GlobalID": "ffe72002-dba5-4f0b-9a0c-cd6e6458d24f" }, "geometry": { "type": "Point", "coordinates": [ -76.621122820436497, 39.293823995232401 ] } },
{ "type": "Feature", "properties": { "OBJECTID": 49, "Id": 0, "CAM_NUM": "49", "NOTES": " ", "LOCATION": "N Paca St and George St", "PROJ": "Downtown", "XCOORD": 1419108.6263651701, "YCOORD": 593489.763731346, "GlobalID": "b87c0cd8-2cb3-4cad-90d9-cef2619f31a0" }, "geometry": { "type": "Point", "coordinates": [ -76.622721376826107, 39.295669238105198 ] } },
{ "type": "Feature", "properties": { "OBJECTID": 50, "Id": 0, "CAM_NUM": "50", "NOTES": " ", "LOCATION": "Cathedral St and W Centre St", "PROJ": "Downtown", "XCOORD": 1420771.89272368, "YCOORD": 593748.40396209096, "GlobalID": "5f356dda-6673-4b81-bd48-cee6787afc10" }, "geometry": { "type": "Point", "coordinates": [ -76.616840606928207, 39.296360307576798 ] } },
{ "type": "Feature", "properties": { "OBJECTID": 51, "Id": 0, "CAM_NUM": "51", "NOTES": " ", "LOCATION": "Center Plaza", "PROJ": "Downtown", "XCOORD": 1420878.5283371799, "YCOORD": 591906.11171492899, "GlobalID": "b597914c-d978-470e-9d86-279a7cca6672" }, "geometry": { "type": "Point", "coordinates": [ -76.616491167360195, 39.2913011186034 ] } },
{ "type": "Feature", "properties": { "OBJECTID": 52, "Id": 0, "CAM_NUM": "53", "NOTES": " ", "LOCATION": "Charles and Baltimore", "PROJ": "Downtown", "XCOORD": 1421212.4279318501, "YCOORD": 591236.22033816599, "GlobalID": "4076464a-3299-493e-95ab-645b0e436ccb" }, "geometry": { "type": "Point", "coordinates": [ -76.615321423065097, 39.289458092499402 ] } },
{ "type": "Feature", "properties": { "OBJECTID": 53, "Id": 0, "CAM_NUM": "54", "NOTES": " ", "LOCATION": "S Charles St and E Lombard St", "PROJ": "Downtown", "XCOORD": 1421265.0912123499, "YCOORD": 590580.45327700698, "GlobalID": "399cd141-ad35-4cba-9208-fbd5b785da34" }, "geometry": { "type": "Point", "coordinates": [ -76.615145128016195, 39.287657091043997 ] } },
{ "type": "Feature", "properties": { "OBJECTID": 54, "Id": 0, "CAM_NUM": "55", "NOTES": " ", "LOCATION": "Saint Paul St and E Lexington St", "PROJ": "Downtown", "XCOORD": 1421575.62339967, "YCOORD": 591882.57173575496, "GlobalID": "a4c623e8-03a1-4c1b-9f94-49b5f29b261c" }, "geometry": { "type": "Point", "coordinates": [ -76.614028576760205, 39.291228424186698 ] } },
{ "type": "Feature", "properties": { "OBJECTID": 55, "Id": 0, "CAM_NUM": "56", "NOTES": " ", "LOCATION": "Light St and E Redwood St", "PROJ": "Downtown", "XCOORD": 1421696.5841157599, "YCOORD": 591054.24793308997, "GlobalID": "37554d29-8e73-4d8c-900d-ac9aaa8242ef" }, "geometry": { "type": "Point", "coordinates": [ -76.613613591756504, 39.288952878247898 ] } },
{ "type": "Feature", "properties": { "OBJECTID": 56, "Id": 0, "CAM_NUM": "57", "NOTES": " ", "LOCATION": "N Calvert St and E Fayette St", "PROJ": "Downtown", "XCOORD": 1422076.1676741701, "YCOORD": 591622.03518333996, "GlobalID": "678d55ec-2eb2-483f-98c1-54a2733687d0" }, "geometry": { "type": "Point", "coordinates": [ -76.612263989884696, 39.290507304580601 ] } },
{ "type": "Feature", "properties": { "OBJECTID": 57, "Id": 0, "CAM_NUM": "58", "NOTES": " ", "LOCATION": "S Calvert St and E Redwood St", "PROJ": "Downtown", "XCOORD": 1422062.99020709, "YCOORD": 591012.30936866999, "GlobalID": "56f82ec6-9525-44bd-aa74-6a99f1937c5f" }, "geometry": { "type": "Point", "coordinates": [ -76.61231969584, 39.288833472056503 ] } },
{ "type": "Feature", "properties": { "OBJECTID": 58, "Id": 0, "CAM_NUM": "59", "NOTES": " ", "LOCATION": "S Calvert St and E Lombard St", "PROJ": "Downtown", "XCOORD": 1422152.4572197499, "YCOORD": 590607.68288134004, "GlobalID": "7b90aa5f-c989-4816-98a6-da3eb1c3fc8f" }, "geometry": { "type": "Point", "coordinates": [ -76.612009682223899, 39.287721536684202 ] } },
{ "type": "Feature", "properties": { "OBJECTID": 59, "Id": 0, "CAM_NUM": "60", "NOTES": " ", "LOCATION": "Guilford Ave and E Lexington St", "PROJ": "Downtown", "XCOORD": 1422441.99765117, "YCOORD": 591928.244216591, "GlobalID": "5747db3e-6fc8-4b08-9c43-8d99ba4d6e09" }, "geometry": { "type": "Point", "coordinates": [ -76.610966861436594, 39.2913437199865 ] } },
{ "type": "Feature", "properties": { "OBJECTID": 60, "Id": 0, "CAM_NUM": "61", "NOTES": " ", "LOCATION": "South St and E Baltimore St", "PROJ": "Downtown", "XCOORD": 1422469.3515991, "YCOORD": 591356.82836467004, "GlobalID": "2e339c33-5b10-49c0-ba49-86bc3d1d01ef" }, "geometry": { "type": "Point", "coordinates": [ -76.610878821409301, 39.289774593241901 ] } },
{ "type": "Feature", "properties": { "OBJECTID": 61, "Id": 0, "CAM_NUM": "62", "NOTES": " ", "LOCATION": "South St and Water St", "PROJ": "Downtown", "XCOORD": 1422498.65370584, "YCOORD": 590829.27069275104, "GlobalID": "7013d037-9d3e-4501-b26b-b216a473777b" }, "geometry": { "type": "Point", "coordinates": [ -76.610783241791495, 39.288325854413799 ] } },
{ "type": "Feature", "properties": { "OBJECTID": 62, "Id": 0, "CAM_NUM": "63", "NOTES": " ", "LOCATION": "N Holliday St and E Saratoga St", "PROJ": "Downtown", "XCOORD": 1422573.8789490899, "YCOORD": 592361.77681408799, "GlobalID": "85a70a82-adbb-42ce-94b6-4e43a79706ee" }, "geometry": { "type": "Point", "coordinates": [ -76.610494369120801, 39.292532427475301 ] } },
{ "type": "Feature", "properties": { "OBJECTID": 63, "Id": 0, "CAM_NUM": "64", "NOTES": " ", "LOCATION": "N Holliday St and E Fayette St", "PROJ": "Downtown", "XCOORD": 1422618.24073701, "YCOORD": 591634.82616825402, "GlobalID": "eadadfdd-f6eb-4c02-84e5-6907e92e6048" }, "geometry": { "type": "Point", "coordinates": [ -76.610348592663996, 39.290536085132203 ] } },
{ "type": "Feature", "properties": { "OBJECTID": 64, "Id": 0, "CAM_NUM": "65", "NOTES": " ", "LOCATION": "Commerce St and E Lombard St", "PROJ": "Downtown", "XCOORD": 1422675.49784034, "YCOORD": 590627.89740784501, "GlobalID": "ab720899-2a38-4c3b-a49c-443a99102bf4" }, "geometry": { "type": "Point", "coordinates": [ -76.610161489233604, 39.287770917422499 ] } },
{ "type": "Feature", "properties": { "OBJECTID": 65, "Id": 0, "CAM_NUM": "66", "NOTES": " ", "LOCATION": "Commerce St and E Pratt St", "PROJ": "Downtown", "XCOORD": 1422761.7125629201, "YCOORD": 590254.92538476002, "GlobalID": "1b0c1082-c85d-43e0-8187-f643586a6a96" }, "geometry": { "type": "Point", "coordinates": [ -76.609862526230202, 39.286745920729402 ] } },
{ "type": "Feature", "properties": { "OBJECTID": 66, "Id": 0, "CAM_NUM": "67", "NOTES": " ", "LOCATION": "Custom House Ave", "PROJ": "Downtown", "XCOORD": 1422782.1846348301, "YCOORD": 591131.78091450001, "GlobalID": "338e1281-7fc1-47d2-ab44-3c72a1e81b5b" }, "geometry": { "type": "Point", "coordinates": [ -76.609776957788299, 39.289153065233101 ] } },
{ "type": "Feature", "properties": { "OBJECTID": 67, "Id": 0, "CAM_NUM": "68", "NOTES": " ", "LOCATION": "S Gay St and E Baltimore St", "PROJ": "Downtown", "XCOORD": 1422998.3236382599, "YCOORD": 591395.91326025105, "GlobalID": "8b41303b-9ee8-4f7d-8451-c0ef46be40a9" }, "geometry": { "type": "Point", "coordinates": [ -76.609009332434297, 39.2898756945036 ] } },
{ "type": "Feature", "properties": { "OBJECTID": 68, "Id": 0, "CAM_NUM": "69", "NOTES": " ", "LOCATION": "S Gay St and Water St", "PROJ": "Downtown", "XCOORD": 1423078.43502659, "YCOORD": 590907.78792417003, "GlobalID": "c0bca53a-ec0d-42c8-84df-0b23ae3d0a52" }, "geometry": { "type": "Point", "coordinates": [ -76.608733684194206, 39.288534616912898 ] } },
{ "type": "Feature", "properties": { "OBJECTID": 69, "Id": 0, "CAM_NUM": "70", "NOTES": " ", "LOCATION": "E Saratoga St and E Lexington St", "PROJ": "Downtown", "XCOORD": 1423362.4659545899, "YCOORD": 591927.10051809298, "GlobalID": "d8586b72-b2bc-4f75-af70-b81371f4367a" }, "geometry": { "type": "Point", "coordinates": [ -76.607714724127604, 39.2913297654543 ] } },
{ "type": "Feature", "properties": { "OBJECTID": 70, "Id": 0, "CAM_NUM": "71", "NOTES": " ", "LOCATION": "Market Pl and E Lombard St", "PROJ": "Downtown", "XCOORD": 1423580.8113184299, "YCOORD": 590636.41346691502, "GlobalID": "314046a0-2805-4ea2-9b20-d6d40f30e7b4" }, "geometry": { "type": "Point", "coordinates": [ -76.606962910534406, 39.287783640350902 ] } },
{ "type": "Feature", "properties": { "OBJECTID": 71, "Id": 0, "CAM_NUM": "72", "NOTES": " ", "LOCATION": "W Lexington St between Pearl St & Greene St", "PROJ": "Downtown", "XCOORD": 1418547.68785451, "YCOORD": 591957.718895167, "GlobalID": "f860bed2-5f35-40b4-ad13-606f8bb0ec70" }, "geometry": { "type": "Point", "coordinates": [ -76.624725633653597, 39.291469399827299 ] } },
{ "type": "Feature", "properties": { "OBJECTID": 72, "Id": 0, "CAM_NUM": "73", "NOTES": " ", "LOCATION": "N Greene St and W Mulberry St", "PROJ": "Downtown", "XCOORD": 1418801.9406268401, "YCOORD": 592785.78154350806, "GlobalID": "cf6b4635-256b-4eb3-a7fd-0f277cadfddb" }, "geometry": { "type": "Point", "coordinates": [ -76.6238152614022, 39.293739950246298 ] } },
{ "type": "Feature", "properties": { "OBJECTID": 73, "Id": 0, "CAM_NUM": "74", "NOTES": " ", "LOCATION": "Druid Hill Ave and Saint Mary St", "PROJ": "Downtown", "XCOORD": 1419089.82620592, "YCOORD": 594161.54683658504, "GlobalID": "1e52a0f5-ebed-4e14-94c3-c564a5754535" }, "geometry": { "type": "Point", "coordinates": [ -76.622777996326803, 39.297513811304903 ] } },
{ "type": "Feature", "properties": { "OBJECTID": 74, "Id": 0, "CAM_NUM": "75", "NOTES": " ", "LOCATION": "Pennsylvania Ave and Saint Mary St", "PROJ": "Downtown", "XCOORD": 1418431.28027892, "YCOORD": 593562.26096166705, "GlobalID": "e40b362c-6ac5-4e80-975b-41c974205bd1" }, "geometry": { "type": "Point", "coordinates": [ -76.625113639593096, 39.295875938241998 ] } },
{ "type": "Feature", "properties": { "OBJECTID": 75, "Id": 0, "CAM_NUM": "76", "NOTES": " ", "LOCATION": "N Eutaw St and W Monument St", "PROJ": "Downtown", "XCOORD": 1419499.0258468401, "YCOORD": 594051.49292284297, "GlobalID": "86d60cf9-1748-4044-b82c-80075e0095a9" }, "geometry": { "type": "Point", "coordinates": [ -76.621333718057798, 39.297207010560498 ] } },
{ "type": "Feature", "properties": { "OBJECTID": 76, "Id": 0, "CAM_NUM": "77", "NOTES": " ", "LOCATION": "Saratoga and Charles", "PROJ": "Downtown", "XCOORD": 1421221.8937921701, "YCOORD": 592246.91188633395, "GlobalID": "f56ff3ec-168b-4f28-9dfd-bb1eac4e5a29" }, "geometry": { "type": "Point", "coordinates": [ -76.615272930660595, 39.292232809438602 ] } },
{ "type": "Feature", "properties": { "OBJECTID": 77, "Id": 0, "CAM_NUM": "78", "NOTES": " ", "LOCATION": "Saint Paul St and Franklin", "PROJ": "Downtown", "XCOORD": 1421508.2026027599, "YCOORD": 593327.06458167697, "GlobalID": "f22b9194-e0ec-48bd-9edc-f69da88365a1" }, "geometry": { "type": "Point", "coordinates": [ -76.614245218241095, 39.295195019818102 ] } },
{ "type": "Feature", "properties": { "OBJECTID": 78, "Id": 0, "CAM_NUM": "79", "NOTES": " ", "LOCATION": "Charles and Fayette", "PROJ": "Downtown", "XCOORD": 1421198.08183192, "YCOORD": 591542.834226251, "GlobalID": "30558bda-c4dd-48a3-a89f-d1e3392eb562" }, "geometry": { "type": "Point", "coordinates": [ -76.615367544406496, 39.290300058887198 ] } },
{ "type": "Feature", "properties": { "OBJECTID": 79, "Id": 0, "CAM_NUM": "201", "NOTES": " ", "LOCATION": "E Fayette St and N Broadway", "PROJ": "Broadway", "XCOORD": 1427186.5075191001, "YCOORD": 592876.53628325497, "GlobalID": "e4c98d10-48bf-4d82-86cb-664e2d4689f5" }, "geometry": { "type": "Point", "coordinates": [ -76.5941889023633, 39.293890519419897 ] } },
{ "type": "Feature", "properties": { "OBJECTID": 80, "Id": 0, "CAM_NUM": "202", "NOTES": " ", "LOCATION": "E Fairmount Ave and N Broadway", "PROJ": "Broadway", "XCOORD": 1427225.6478607501, "YCOORD": 592385.520861089, "GlobalID": "9d533748-d732-4445-8c96-d5e570a98c4e" }, "geometry": { "type": "Point", "coordinates": [ -76.594058323434496, 39.292541974325502 ] } },
{ "type": "Feature", "properties": { "OBJECTID": 81, "Id": 0, "CAM_NUM": "203", "NOTES": " ", "LOCATION": "E Baltimore St and S Broadway", "PROJ": "Broadway", "XCOORD": 1427243.84500284, "YCOORD": 591997.169931754, "GlobalID": "6f40ac6b-5735-441a-a35e-206f908fe201" }, "geometry": { "type": "Point", "coordinates": [ -76.594000131564897, 39.291475546565003 ] } },
{ "type": "Feature", "properties": { "OBJECTID": 82, "Id": 0, "CAM_NUM": "204", "NOTES": " ", "LOCATION": "E Baltimore St and S Ann St", "PROJ": "Broadway", "XCOORD": 1427899.8102263401, "YCOORD": 592045.298116341, "GlobalID": "6dd3a2ec-05c8-4264-a4cb-c811c52f7b5a" }, "geometry": { "type": "Point", "coordinates": [ -76.591681743444994, 39.291599648619901 ] } },
{ "type": "Feature", "properties": { "OBJECTID": 83, "Id": 0, "CAM_NUM": "205", "NOTES": " ", "LOCATION": "E Baltimore St and S Washington St", "PROJ": "Broadway", "XCOORD": 1428634.77890076, "YCOORD": 592085.04147517704, "GlobalID": "381b1ca4-baa9-4405-b0ae-432746fba880" }, "geometry": { "type": "Point", "coordinates": [ -76.589084348098993, 39.291699708633402 ] } },
{ "type": "Feature", "properties": { "OBJECTID": 84, "Id": 0, "CAM_NUM": "206", "NOTES": " ", "LOCATION": "E Lombard St and S Broadway", "PROJ": "Broadway", "XCOORD": 1427345.50227985, "YCOORD": 591633.40294276201, "GlobalID": "ce67ce07-5984-4596-8137-5cf94103ad92" }, "geometry": { "type": "Point", "coordinates": [ -76.593646681533301, 39.2904755933302 ] } },
{ "type": "Feature", "properties": { "OBJECTID": 85, "Id": 0, "CAM_NUM": "207", "NOTES": " ", "LOCATION": "E Lombard St and S Ann St", "PROJ": "Broadway", "XCOORD": 1427884.0461502499, "YCOORD": 591651.10795983695, "GlobalID": "fa95eef5-ab44-4598-8243-a9dc504921d1" }, "geometry": { "type": "Point", "coordinates": [ -76.5917436690318, 39.290517605001099 ] } },
{ "type": "Feature", "properties": { "OBJECTID": 86, "Id": 0, "CAM_NUM": "208", "NOTES": " ", "LOCATION": "E Lombard St and S Durham St", "PROJ": "Broadway", "XCOORD": 1428086.5355746699, "YCOORD": 591660.15256117296, "GlobalID": "9fa31fb5-619d-46ce-822c-a88b56528a5e" }, "geometry": { "type": "Point", "coordinates": [ -76.591028108807507, 39.290539948303497 ] } },
{ "type": "Feature", "properties": { "OBJECTID": 87, "Id": 0, "CAM_NUM": "209", "NOTES": " ", "LOCATION": "E Lombard St and S Chapel St", "PROJ": "Broadway", "XCOORD": 1428449.64705317, "YCOORD": 591650.19490392494, "GlobalID": "f1dfb2f7-666a-4a17-8f28-0dc62d8a33fd" }, "geometry": { "type": "Point", "coordinates": [ -76.589745354418099, 39.290508136684998 ] } },
{ "type": "Feature", "properties": { "OBJECTID": 88, "Id": 0, "CAM_NUM": "210", "NOTES": " ", "LOCATION": "E Lombard St and S Washington St", "PROJ": "Broadway", "XCOORD": 1428613.2389175899, "YCOORD": 591683.12987741805, "GlobalID": "2c43a3d4-6399-4e34-87fe-9ff2e95b1e25" }, "geometry": { "type": "Point", "coordinates": [ -76.589166843098496, 39.290596538799299 ] } },
{ "type": "Feature", "properties": { "OBJECTID": 89, "Id": 0, "CAM_NUM": "211", "NOTES": " ", "LOCATION": "E Pratt St and S Broadway", "PROJ": "Broadway", "XCOORD": 1427380.6970913401, "YCOORD": 591197.67415542901, "GlobalID": "8ff014a7-39b2-4759-8ee9-4c0b4f8fdea4" }, "geometry": { "type": "Point", "coordinates": [ -76.593529189185801, 39.2892788823765 ] } },
{ "type": "Feature", "properties": { "OBJECTID": 90, "Id": 0, "CAM_NUM": "212", "NOTES": " ", "LOCATION": "E Pratt St and N Bond St", "PROJ": "Broadway", "XCOORD": 1426816.52039817, "YCOORD": 591139.58536083996, "GlobalID": "f8f2278f-0e6c-4c37-af18-f366e98a7756" }, "geometry": { "type": "Point", "coordinates": [ -76.595523361492496, 39.289126281087199 ] } },
{ "type": "Feature", "properties": { "OBJECTID": 91, "Id": 0, "CAM_NUM": "213", "NOTES": " ", "LOCATION": "Gough St and S Broadway", "PROJ": "Broadway", "XCOORD": 1427320.67194892, "YCOORD": 590571.324686334, "GlobalID": "2fbbbdca-2671-4f9d-bfac-0ebe9a01b5b8" }, "geometry": { "type": "Point", "coordinates": [ -76.593751108719502, 39.287559990858298 ] } },
{ "type": "Feature", "properties": { "OBJECTID": 92, "Id": 0, "CAM_NUM": "214", "NOTES": " ", "LOCATION": "Gough St and S Regester St", "PROJ": "Broadway", "XCOORD": 1427708.47661951, "YCOORD": 590597.57824274898, "GlobalID": "ff875eaa-03b4-478b-8b33-5bb9702a636f" }, "geometry": { "type": "Point", "coordinates": [ -76.592380595698998, 39.287627323164102 ] } },
{ "type": "Feature", "properties": { "OBJECTID": 93, "Id": 0, "CAM_NUM": "215", "NOTES": " ", "LOCATION": "Bank St and S Broadway", "PROJ": "Broadway", "XCOORD": 1427423.5198403399, "YCOORD": 590246.37422075903, "GlobalID": "ed191ac7-34b2-49b3-a2f9-e5b13a1bfad6" }, "geometry": { "type": "Point", "coordinates": [ -76.593392864557202, 39.286666590892601 ] } },
{ "type": "Feature", "properties": { "OBJECTID": 94, "Id": 0, "CAM_NUM": "216", "NOTES": " ", "LOCATION": "Bank St and S Bond St", "PROJ": "Broadway", "XCOORD": 1426868.94516209, "YCOORD": 590171.235591501, "GlobalID": "2b191277-e0e6-4f96-873b-f6b5e0ee9475" }, "geometry": { "type": "Point", "coordinates": [ -76.595353307675495, 39.286467065072202 ] } },
{ "type": "Feature", "properties": { "OBJECTID": 95, "Id": 0, "CAM_NUM": "217", "NOTES": " ", "LOCATION": "Bank St and Caroline St", "PROJ": "Broadway", "XCOORD": 1426477.5942387599, "YCOORD": 590153.00236025499, "GlobalID": "240df7cb-512d-4737-843a-7ba6e41342e7" }, "geometry": { "type": "Point", "coordinates": [ -76.596736198860597, 39.286421760668297 ] } },
{ "type": "Feature", "properties": { "OBJECTID": 96, "Id": 0, "CAM_NUM": "218", "NOTES": " ", "LOCATION": "Eastern Ave and S Broadway", "PROJ": "Broadway", "XCOORD": 1427448.3219560799, "YCOORD": 589821.48858758796, "GlobalID": "c63b2384-656e-4548-9b26-17698d63e9ef" }, "geometry": { "type": "Point", "coordinates": [ -76.593311928052103, 39.285499775051697 ] } },
{ "type": "Feature", "properties": { "OBJECTID": 97, "Id": 0, "CAM_NUM": "219", "NOTES": " ", "LOCATION": "Eastern Ave and S Ann St", "PROJ": "Broadway", "XCOORD": 1427956.6713330899, "YCOORD": 589896.80831883801, "GlobalID": "9d5034be-0268-4c93-bdf0-c63c74d4fe37" }, "geometry": { "type": "Point", "coordinates": [ -76.591514810967098, 39.285700332067698 ] } },
{ "type": "Feature", "properties": { "OBJECTID": 98, "Id": 0, "CAM_NUM": "220", "NOTES": " ", "LOCATION": "Fleet St and S Broadway (West)", "PROJ": "Broadway", "XCOORD": 1427355.0025889301, "YCOORD": 589494.68281075405, "GlobalID": "3eb70c6b-e78d-4ebd-9351-19c551a9682b" }, "geometry": { "type": "Point", "coordinates": [ -76.593646751506, 39.2846036788875 ] } },
{ "type": "Feature", "properties": { "OBJECTID": 99, "Id": 0, "CAM_NUM": "221", "NOTES": " ", "LOCATION": "Fleet St and S Broadway St East", "PROJ": "Broadway", "XCOORD": 1427482.26480159, "YCOORD": 589470.87905259395, "GlobalID": "8c0e7b10-39cb-4a96-8136-31e9c40ad609" }, "geometry": { "type": "Point", "coordinates": [ -76.593197532505499, 39.284536770128099 ] } },
{ "type": "Feature", "properties": { "OBJECTID": 100, "Id": 0, "CAM_NUM": "222", "NOTES": " ", "LOCATION": "Fleet St and S Ann St", "PROJ": "Broadway", "XCOORD": 1428022.5412800901, "YCOORD": 589549.505863845, "GlobalID": "c3a7468c-4ca2-4b5f-b1ef-a2e2e28d7dc3" }, "geometry": { "type": "Point", "coordinates": [ -76.591287594466095, 39.284746012565499 ] } },
{ "type": "Feature", "properties": { "OBJECTID": 101, "Id": 0, "CAM_NUM": "223", "NOTES": " ", "LOCATION": "Fleet St and S Caroline St", "PROJ": "Broadway", "XCOORD": 1426513.91437609, "YCOORD": 589390.99535408604, "GlobalID": "25aef068-e563-4424-b945-6fdf53defdd9" }, "geometry": { "type": "Point", "coordinates": [ -76.596619778954803, 39.284329248809598 ] } },
{ "type": "Feature", "properties": { "OBJECTID": 102, "Id": 0, "CAM_NUM": "224", "NOTES": " ", "LOCATION": "Fleet St and S Eden St", "PROJ": "Broadway", "XCOORD": 1426086.6832751799, "YCOORD": 589385.08493283403, "GlobalID": "cf9e728c-a981-4fd4-9ed0-142a7dfa15e4" }, "geometry": { "type": "Point", "coordinates": [ -76.598129193470697, 39.284318195171899 ] } },
{ "type": "Feature", "properties": { "OBJECTID": 103, "Id": 0, "CAM_NUM": "225", "NOTES": " ", "LOCATION": "S Broadway and Aliceanna St East", "PROJ": "Broadway", "XCOORD": 1427469.58766159, "YCOORD": 589130.60151791596, "GlobalID": "8ddd68b3-8dec-4085-ad9b-71768dc1f315" }, "geometry": { "type": "Point", "coordinates": [ -76.5932476747832, 39.2836027014949 ] } },
{ "type": "Feature", "properties": { "OBJECTID": 104, "Id": 0, "CAM_NUM": "226", "NOTES": " ", "LOCATION": "Aliceanna and Broadway West", "PROJ": "Broadway", "XCOORD": 1427412.8167777499, "YCOORD": 589077.51993116701, "GlobalID": "fc2dcc38-1f12-41ec-9198-e604948d9e9e" }, "geometry": { "type": "Point", "coordinates": [ -76.593449068074406, 39.283457661566203 ] } },
{ "type": "Feature", "properties": { "OBJECTID": 105, "Id": 0, "CAM_NUM": "227", "NOTES": " ", "LOCATION": "Thames St and S Broadway", "PROJ": "Broadway", "XCOORD": 1427440.2130484299, "YCOORD": 588450.50970225001, "GlobalID": "cb27b7c3-14c7-49fb-b9b8-051cd6106fc3" }, "geometry": { "type": "Point", "coordinates": [ -76.593362150603198, 39.281735884409201 ] } },
{ "type": "Feature", "properties": { "OBJECTID": 106, "Id": 0, "CAM_NUM": "301", "NOTES": " ", "LOCATION": "2708 Berea Rd rear", "PROJ": "HABC Cherry Hill", "XCOORD": 1416182.9606285801, "YCOORD": 577095.94514109194, "GlobalID": "da7e5178-e230-4fc6-bdaa-190b3e19bfe3" }, "geometry": { "type": "Point", "coordinates": [ -76.633291529821093, 39.250692921391497 ] } },
{ "type": "Feature", "properties": { "OBJECTID": 107, "Id": 0, "CAM_NUM": "302", "NOTES": " ", "LOCATION": "1312 Shellbanks rear", "PROJ": "HABC Cherry Hill", "XCOORD": 1416488.08665876, "YCOORD": 577190.63031917799, "GlobalID": "41b03a95-2b34-49e3-9226-81655daa2d7e" }, "geometry": { "type": "Point", "coordinates": [ -76.632212742296005, 39.250949510132102 ] } },
{ "type": "Feature", "properties": { "OBJECTID": 108, "Id": 0, "CAM_NUM": "303", "NOTES": " ", "LOCATION": "Berea Rd and Slater Rd", "PROJ": "HABC Cherry Hill", "XCOORD": 1416234.59733634, "YCOORD": 576973.22983534599, "GlobalID": "ab5066af-3f24-4028-92f0-f6ac82ca5214" }, "geometry": { "type": "Point", "coordinates": [ -76.633110935278594, 39.250355435946901 ] } },
{ "type": "Feature", "properties": { "OBJECTID": 109, "Id": 0, "CAM_NUM": "304", "NOTES": " ", "LOCATION": "2711 Berea Rd rear", "PROJ": "HABC Cherry Hill", "XCOORD": 1416346.2175199201, "YCOORD": 576941.469400167, "GlobalID": "816e9e28-cacc-4890-9e2a-214a244f08dc" }, "geometry": { "type": "Point", "coordinates": [ -76.632717242679604, 39.2502670051229 ] } },
{ "type": "Feature", "properties": { "OBJECTID": 110, "Id": 0, "CAM_NUM": "305", "NOTES": " ", "LOCATION": "Shellbanks Rd and Blyden Rd", "PROJ": "HABC Cherry Hill", "XCOORD": 1416590.35253035, "YCOORD": 576996.78753100301, "GlobalID": "7c7886ea-6b53-4036-882f-8a0af44f9de0" }, "geometry": { "type": "Point", "coordinates": [ -76.631854387012893, 39.250416181583297 ] } },
{ "type": "Feature", "properties": { "OBJECTID": 111, "Id": 0, "CAM_NUM": "306", "NOTES": " ", "LOCATION": "1301 Slater Rd rear", "PROJ": "HABC Cherry Hill", "XCOORD": 1416290.5890222599, "YCOORD": 576708.064683259, "GlobalID": "cd8583a1-790a-4e6d-b8c1-7e90fb28c5c7" }, "geometry": { "type": "Point", "coordinates": [ -76.632916987239497, 39.2496268048925 ] } },
{ "type": "Feature", "properties": { "OBJECTID": 112, "Id": 0, "CAM_NUM": "307", "NOTES": " ", "LOCATION": "Bldg 1200 rear", "PROJ": "HABC Cherry Hill", "XCOORD": 1416851.7703145901, "YCOORD": 576971.92209518002, "GlobalID": "1af1154a-ac45-4471-95e3-1277cbacac91" }, "geometry": { "type": "Point", "coordinates": [ -76.630931644758306, 39.250345015296297 ] } },
{ "type": "Feature", "properties": { "OBJECTID": 113, "Id": 0, "CAM_NUM": "309", "NOTES": " ", "LOCATION": "Fisk Rd and Slater Rd", "PROJ": "HABC Cherry Hill", "XCOORD": 1416557.5786457499, "YCOORD": 576483.95948842203, "GlobalID": "b820defd-706f-4a68-a16b-668cf45603d6" }, "geometry": { "type": "Point", "coordinates": [ -76.631977415822007, 39.249008570817203 ] } },
{ "type": "Feature", "properties": { "OBJECTID": 114, "Id": 0, "CAM_NUM": "308", "NOTES": " ", "LOCATION": "1201 Slater Rd rear", "PROJ": "HABC Cherry Hill", "XCOORD": 1416495.3130222601, "YCOORD": 576384.97871525597, "GlobalID": "cdf8532f-e733-48be-9719-5ae08bcccc2a" }, "geometry": { "type": "Point", "coordinates": [ -76.632198686941095, 39.248737507196601 ] } },
{ "type": "Feature", "properties": { "OBJECTID": 115, "Id": 0, "CAM_NUM": "310", "NOTES": " ", "LOCATION": "Giles Rd and Shellbanks Rd", "PROJ": "HABC Cherry Hill", "XCOORD": 1417034.05374268, "YCOORD": 576733.47473742103, "GlobalID": "3ced9d56-68f7-47c8-92bd-180dce5b2814" }, "geometry": { "type": "Point", "coordinates": [ -76.630291390944905, 39.249688331167903 ] } },
{ "type": "Feature", "properties": { "OBJECTID": 116, "Id": 0, "CAM_NUM": "311", "NOTES": " ", "LOCATION": "2701 Giles Rd rear and Shellbanks", "PROJ": "HABC Cherry Hill", "XCOORD": 1417106.27472684, "YCOORD": 576634.47952859104, "GlobalID": "f1230487-7594-4801-98ca-8d4c7778bc4f" }, "geometry": { "type": "Point", "coordinates": [ -76.630037789353096, 39.2494157357213 ] } },
{ "type": "Feature", "properties": { "OBJECTID": 117, "Id": 0, "CAM_NUM": "312", "NOTES": " ", "LOCATION": "Sethlow Rd and Slater Rd", "PROJ": "HABC Cherry Hill", "XCOORD": 1416981.5991231799, "YCOORD": 576291.495634511, "GlobalID": "b64fed56-02d5-4299-911b-d39e1c4dff4e" }, "geometry": { "type": "Point", "coordinates": [ -76.630482929777102, 39.248475456888102 ] } },
{ "type": "Feature", "properties": { "OBJECTID": 118, "Id": 0, "CAM_NUM": "313", "NOTES": " ", "LOCATION": "Spelman Rd and Woodview Rd", "PROJ": "HABC Cherry Hill", "XCOORD": 1417341.7381666701, "YCOORD": 576352.68252000201, "GlobalID": "0ca31cae-15b2-452f-9ddf-11ada3798e3e" }, "geometry": { "type": "Point", "coordinates": [ -76.629210393381399, 39.248639436814898 ] } },
{ "type": "Feature", "properties": { "OBJECTID": 119, "Id": 0, "CAM_NUM": "314", "NOTES": " ", "LOCATION": "Woodview Rd and Round Rd", "PROJ": "HABC Cherry Hill", "XCOORD": 1417559.46181259, "YCOORD": 576397.35992409301, "GlobalID": "835ce59b-3c7f-478d-b1dd-e903f2835221" }, "geometry": { "type": "Point", "coordinates": [ -76.628440962572597, 39.248759668542299 ] } },
{ "type": "Feature", "properties": { "OBJECTID": 120, "Id": 0, "CAM_NUM": "315", "NOTES": " ", "LOCATION": "Community Center rear", "PROJ": "HABC Cherry Hill", "XCOORD": 1417193.0245533399, "YCOORD": 576180.73306076205, "GlobalID": "ae062576-9d25-44b8-bb6a-217aac929448" }, "geometry": { "type": "Point", "coordinates": [ -76.629737968239596, 39.248169005248599 ] } },
{ "type": "Feature", "properties": { "OBJECTID": 121, "Id": 0, "CAM_NUM": "316", "NOTES": " ", "LOCATION": "Community Center rear", "PROJ": "HABC Cherry Hill", "XCOORD": 1417104.67368017, "YCOORD": 575813.74527767301, "GlobalID": "ea1641ad-64f6-449c-a9a9-103f579a54f9" }, "geometry": { "type": "Point", "coordinates": [ -76.630055187120902, 39.247162420218601 ] } },
{ "type": "Feature", "properties": { "OBJECTID": 122, "Id": 0, "CAM_NUM": "317", "NOTES": " ", "LOCATION": "Spelman Rd and Claflin Ct", "PROJ": "HABC Cherry Hill", "XCOORD": 1417448.32489575, "YCOORD": 575790.68265976, "GlobalID": "802ebac8-3f14-4140-b122-f835b3ea663a" }, "geometry": { "type": "Point", "coordinates": [ -76.628842100707402, 39.2470952717998 ] } },
{ "type": "Feature", "properties": { "OBJECTID": 123, "Id": 0, "CAM_NUM": "318", "NOTES": " ", "LOCATION": "2822 Round Rd", "PROJ": "HABC Cherry Hill", "XCOORD": 1417766.90923233, "YCOORD": 575527.80884167599, "GlobalID": "3a5ebaa3-f3b4-4183-a756-959de0d2bc1b" }, "geometry": { "type": "Point", "coordinates": [ -76.627720979610501, 39.246369987486602 ] } },
{ "type": "Feature", "properties": { "OBJECTID": 124, "Id": 0, "CAM_NUM": "319", "NOTES": " ", "LOCATION": "Spelman Rd and S Denham Cir", "PROJ": "HABC Cherry Hill", "XCOORD": 1417573.1369820801, "YCOORD": 575342.69897566701, "GlobalID": "d131c88d-baca-437d-b598-461b01f6c89e" }, "geometry": { "type": "Point", "coordinates": [ -76.628407833875499, 39.245863933939098 ] } },
{ "type": "Feature", "properties": { "OBJECTID": 125, "Id": 0, "CAM_NUM": "320", "NOTES": " ", "LOCATION": "2810 Denham Cr side", "PROJ": "HABC Cherry Hill", "XCOORD": 1417377.2771375901, "YCOORD": 575182.12810258602, "GlobalID": "f09368ee-50f2-4d32-b7f0-eae51ad4b152" }, "geometry": { "type": "Point", "coordinates": [ -76.629101697336694, 39.245425271667202 ] } },
{ "type": "Feature", "properties": { "OBJECTID": 126, "Id": 0, "CAM_NUM": "321", "NOTES": " ", "LOCATION": "2822 Denham Cr rear", "PROJ": "HABC Cherry Hill", "XCOORD": 1417471.3917787501, "YCOORD": 574842.63337475096, "GlobalID": "10af2acf-87ad-411b-b160-8e580d3c5bcd" }, "geometry": { "type": "Point", "coordinates": [ -76.628774265337597, 39.2444921346858 ] } },
{ "type": "Feature", "properties": { "OBJECTID": 127, "Id": 0, "CAM_NUM": "322", "NOTES": " ", "LOCATION": "2824 N Denham Cir", "PROJ": "HABC Cherry Hill", "XCOORD": 1417538.5133636701, "YCOORD": 574885.42233116901, "GlobalID": "cccfd9b4-013a-4684-bf65-be683a9b686e" }, "geometry": { "type": "Point", "coordinates": [ -76.628536656095605, 39.244608862642004 ] } },
{ "type": "Feature", "properties": { "OBJECTID": 128, "Id": 0, "CAM_NUM": "323", "NOTES": " ", "LOCATION": "2820 Spelman Rd", "PROJ": "HABC Cherry Hill", "XCOORD": 1417698.2154720901, "YCOORD": 574961.40347842895, "GlobalID": "a01748f9-466a-45ba-85ec-17ae45535162" }, "geometry": { "type": "Point", "coordinates": [ -76.627971681893897, 39.244815684249403 ] } },
{ "type": "Feature", "properties": { "OBJECTID": 129, "Id": 0, "CAM_NUM": "324", "NOTES": " ", "LOCATION": "Bridgeview Rd and Spelman Rd", "PROJ": "HABC Cherry Hill", "XCOORD": 1417885.8348475101, "YCOORD": 575069.92721150804, "GlobalID": "eae9086d-b757-416e-a092-6d97593564f4" }, "geometry": { "type": "Point", "coordinates": [ -76.627307663622105, 39.245111536284803 ] } },
{ "type": "Feature", "properties": { "OBJECTID": 130, "Id": 0, "CAM_NUM": "325", "NOTES": " ", "LOCATION": "Rear of 2917 S Denham Cir", "PROJ": "HABC Cherry Hill", "XCOORD": 1417753.5959387601, "YCOORD": 574626.24273142195, "GlobalID": "c672b03d-8bba-4c72-a601-e112d0e1ab87" }, "geometry": { "type": "Point", "coordinates": [ -76.627780967527698, 39.243894876642401 ] } },
{ "type": "Feature", "properties": { "OBJECTID": 131, "Id": 0, "CAM_NUM": "326", "NOTES": " ", "LOCATION": "Side of 2901 Denham Cir", "PROJ": "HABC Cherry Hill", "XCOORD": 1418120.0594446801, "YCOORD": 574777.22635333205, "GlobalID": "d0860ec9-b93a-4a58-a594-ddfff979c641" }, "geometry": { "type": "Point", "coordinates": [ -76.626484879326696, 39.244305294456503 ] } },
{ "type": "Feature", "properties": { "OBJECTID": 132, "Id": 0, "CAM_NUM": "327", "NOTES": " ", "LOCATION": "3301 Round Rd", "PROJ": "HABC Cherry Hill", "XCOORD": 1418284.1952712501, "YCOORD": 575001.56448733795, "GlobalID": "026b5988-73b0-4d9a-b737-d9dd77390e4e" }, "geometry": { "type": "Point", "coordinates": [ -76.625902100273507, 39.2449193721149 ] } },
{ "type": "Feature", "properties": { "OBJECTID": 133, "Id": 0, "CAM_NUM": "328", "NOTES": " ", "LOCATION": "Behind 911 Coppin Ct.", "PROJ": "HABC Cherry Hill", "XCOORD": 1418535.8489674199, "YCOORD": 575035.51553492201, "GlobalID": "d0318645-b093-49b3-80df-17157dc4d79e" }, "geometry": { "type": "Point", "coordinates": [ -76.625013057828596, 39.2450097503649 ] } },
{ "type": "Feature", "properties": { "OBJECTID": 134, "Id": 0, "CAM_NUM": "329", "NOTES": " ", "LOCATION": "Coppin Ct and Bunche Rd", "PROJ": "HABC Cherry Hill", "XCOORD": 1418742.21600875, "YCOORD": 575142.16558408702, "GlobalID": "592a8716-4d63-4692-8c09-97888826ba5b" }, "geometry": { "type": "Point", "coordinates": [ -76.624282857190906, 39.245300229605697 ] } },
{ "type": "Feature", "properties": { "OBJECTID": 135, "Id": 0, "CAM_NUM": "330", "NOTES": " ", "LOCATION": "Bethune Rd and Bunche Rd", "PROJ": "HABC Cherry Hill", "XCOORD": 1418871.3591231699, "YCOORD": 575038.32261592103, "GlobalID": "959309ca-f3e6-40c9-a807-3f87e6b2f7a3" }, "geometry": { "type": "Point", "coordinates": [ -76.623828381406398, 39.245013667453598 ] } },
{ "type": "Feature", "properties": { "OBJECTID": 136, "Id": 0, "CAM_NUM": "331", "NOTES": " ", "LOCATION": "Rear of 3411 Round Rd", "PROJ": "HABC Cherry Hill", "XCOORD": 1418884.256079, "YCOORD": 574717.98467391694, "GlobalID": "892a50bb-0da9-4c98-89b5-adc6012d0ed7" }, "geometry": { "type": "Point", "coordinates": [ -76.623787505478404, 39.244134030131697 ] } },
{ "type": "Feature", "properties": { "OBJECTID": 137, "Id": 0, "CAM_NUM": "332", "NOTES": " ", "LOCATION": "3401 Round Rd", "PROJ": "HABC Cherry Hill", "XCOORD": 1418658.8375665799, "YCOORD": 574652.01630191505, "GlobalID": "8bab6a1a-9e4a-433f-8656-cc172694addc" }, "geometry": { "type": "Point", "coordinates": [ -76.624584372204893, 39.243955461023603 ] } },
{ "type": "Feature", "properties": { "OBJECTID": 138, "Id": 0, "CAM_NUM": "333", "NOTES": " ", "LOCATION": "Bethune Rd and Spelman Rd", "PROJ": "HABC Cherry Hill", "XCOORD": 1418222.57761234, "YCOORD": 574511.204247594, "GlobalID": "9f484827-16e9-40da-99c8-9bf910e2897f" }, "geometry": { "type": "Point", "coordinates": [ -76.626126753557998, 39.243573775382998 ] } },
{ "type": "Feature", "properties": { "OBJECTID": 139, "Id": 0, "CAM_NUM": "334", "NOTES": " ", "LOCATION": "Back Circle 1019 Bethune Rd", "PROJ": "HABC Cherry Hill", "XCOORD": 1418037.89655125, "YCOORD": 574196.01885433495, "GlobalID": "e018f1ff-fa0a-41d9-9e4a-f9c033181cb5" }, "geometry": { "type": "Point", "coordinates": [ -76.626783371013005, 39.242710504684702 ] } },
{ "type": "Feature", "properties": { "OBJECTID": 140, "Id": 0, "CAM_NUM": "335", "NOTES": " ", "LOCATION": "3430 Spelman Rd", "PROJ": "HABC Cherry Hill", "XCOORD": 1418364.658693, "YCOORD": 574252.06664250803, "GlobalID": "2895b696-0ef5-41db-b437-30e99157188d" }, "geometry": { "type": "Point", "coordinates": [ -76.625628849082702, 39.242860711183802 ] } },
{ "type": "Feature", "properties": { "OBJECTID": 141, "Id": 0, "CAM_NUM": "336", "NOTES": " ", "LOCATION": "3456 Spelman Rd", "PROJ": "HABC Cherry Hill", "XCOORD": 1418471.0994249999, "YCOORD": 574178.56875801098, "GlobalID": "d1436ae9-6e72-4c4d-8115-131f9637d235" }, "geometry": { "type": "Point", "coordinates": [ -76.625254099596006, 39.242657722757102 ] } },
{ "type": "Feature", "properties": { "OBJECTID": 142, "Id": 0, "CAM_NUM": "337", "NOTES": " ", "LOCATION": "3446 Spelman Rd Parking Lot", "PROJ": "HABC Cherry Hill", "XCOORD": 1418407.20978901, "YCOORD": 574014.65504383994, "GlobalID": "4537e936-072b-47c7-a984-1a2a48926148" }, "geometry": { "type": "Point", "coordinates": [ -76.625482051078393, 39.242208415365702 ] } },
{ "type": "Feature", "properties": { "OBJECTID": 143, "Id": 0, "CAM_NUM": "338", "NOTES": " ", "LOCATION": "3474 Spelman Rd", "PROJ": "HABC Cherry Hill", "XCOORD": 1418821.51899976, "YCOORD": 574139.52421666705, "GlobalID": "84ed29b3-de54-45e3-81ac-323df5f43f25" }, "geometry": { "type": "Point", "coordinates": [ -76.624017429874002, 39.2425465695379 ] } },
{ "type": "Feature", "properties": { "OBJECTID": 144, "Id": 0, "CAM_NUM": "339", "NOTES": " ", "LOCATION": "3486 Spelman Rd", "PROJ": "HABC Cherry Hill", "XCOORD": 1418828.35133517, "YCOORD": 573954.06756658899, "GlobalID": "1893f658-528a-4db2-ad06-ef369e4c8a23" }, "geometry": { "type": "Point", "coordinates": [ -76.623996003779894, 39.242037318634303 ] } },
{ "type": "Feature", "properties": { "OBJECTID": 145, "Id": 0, "CAM_NUM": "340", "NOTES": " ", "LOCATION": "Seagull Ave UMBC rear", "PROJ": "HABC Cherry Hill", "XCOORD": 1419295.42356376, "YCOORD": 574285.56493508804, "GlobalID": "6e734dc3-188c-4898-825d-782218882839" }, "geometry": { "type": "Point", "coordinates": [ -76.622342069612898, 39.242942155442996 ] } },
{ "type": "Feature", "properties": { "OBJECTID": 146, "Id": 0, "CAM_NUM": "341", "NOTES": " ", "LOCATION": "Seagull Ave", "PROJ": "HABC Cherry Hill", "XCOORD": 1419155.1617051801, "YCOORD": 574423.89110200095, "GlobalID": "bfff4305-cf5a-41aa-91c0-8d22636aa655" }, "geometry": { "type": "Point", "coordinates": [ -76.622835280724502, 39.243323523685802 ] } },
{ "type": "Feature", "properties": { "OBJECTID": 147, "Id": 0, "CAM_NUM": "342", "NOTES": " ", "LOCATION": "Behind 835 Seagull Ave", "PROJ": "HABC Cherry Hill", "XCOORD": 1419722.5227751699, "YCOORD": 574856.91681075096, "GlobalID": "bdbc2967-9fe2-4e39-9d59-6d606ddab31a" }, "geometry": { "type": "Point", "coordinates": [ -76.620825712055193, 39.2445059478584 ] } },
{ "type": "Feature", "properties": { "OBJECTID": 148, "Id": 0, "CAM_NUM": "343", "NOTES": " ", "LOCATION": "835 Seagull Ave", "PROJ": "HABC Cherry Hill", "XCOORD": 1419616.0991035099, "YCOORD": 574962.38543184102, "GlobalID": "564c745e-3742-4472-b1c6-705061e8ee2c" }, "geometry": { "type": "Point", "coordinates": [ -76.621199929990695, 39.244796726120398 ] } },
{ "type": "Feature", "properties": { "OBJECTID": 149, "Id": 0, "CAM_NUM": "344", "NOTES": " ", "LOCATION": "Seagull Ave and Bethune Rd", "PROJ": "HABC Cherry Hill", "XCOORD": 1419711.0815250899, "YCOORD": 575110.65153950499, "GlobalID": "e2037567-69e2-4b3e-8608-c46bffc59582" }, "geometry": { "type": "Point", "coordinates": [ -76.620862388282603, 39.245202709713602 ] } },
{ "type": "Feature", "properties": { "OBJECTID": 150, "Id": 0, "CAM_NUM": "345", "NOTES": " ", "LOCATION": "Carver Rd Front of School", "PROJ": "HABC Cherry Hill", "XCOORD": 1418612.54041509, "YCOORD": 575522.92728975404, "GlobalID": "025b9bc7-99fb-4e9b-97e0-cced3f0f36af" }, "geometry": { "type": "Point", "coordinates": [ -76.624735197405897, 39.246347079208697 ] } },
{ "type": "Feature", "properties": { "OBJECTID": 151, "Id": 0, "CAM_NUM": "346", "NOTES": " ", "LOCATION": "Carver Rd and Bridgeview Rd", "PROJ": "HABC Cherry Hill", "XCOORD": 1418432.06735083, "YCOORD": 575696.67267717398, "GlobalID": "c70334a9-b09e-4616-9e3b-acd0b68b28aa" }, "geometry": { "type": "Point", "coordinates": [ -76.625369914928797, 39.246826133986197 ] } },
{ "type": "Feature", "properties": { "OBJECTID": 152, "Id": 0, "CAM_NUM": "347", "NOTES": " ", "LOCATION": "Rear of 2805 Carver Rd", "PROJ": "HABC Cherry Hill", "XCOORD": 1418352.4116702499, "YCOORD": 576047.39113584196, "GlobalID": "04137047-fbfe-4787-9f4f-73dc1bc1c871" }, "geometry": { "type": "Point", "coordinates": [ -76.625646096039503, 39.247789931916202 ] } },
{ "type": "Feature", "properties": { "OBJECTID": 153, "Id": 0, "CAM_NUM": "348", "NOTES": " ", "LOCATION": "2627 Carver Rd", "PROJ": "HABC Cherry Hill", "XCOORD": 1418182.7729019199, "YCOORD": 576051.57485450804, "GlobalID": "ec51bf26-0da9-457b-855c-0f38a56056b2" }, "geometry": { "type": "Point", "coordinates": [ -76.626245027898605, 39.2478033267409 ] } },
{ "type": "Feature", "properties": { "OBJECTID": 154, "Id": 0, "CAM_NUM": "349", "NOTES": " ", "LOCATION": "2609 Carver Rd", "PROJ": "HABC Cherry Hill", "XCOORD": 1418298.3346786799, "YCOORD": 576344.45419000101, "GlobalID": "ef03f79d-6af4-48f7-aab0-2eda944fc105" }, "geometry": { "type": "Point", "coordinates": [ -76.625832741941196, 39.248606129771197 ] } },
{ "type": "Feature", "properties": { "OBJECTID": 155, "Id": 0, "CAM_NUM": "350", "NOTES": " ", "LOCATION": "2615 Carver Rd circle", "PROJ": "HABC Cherry Hill", "XCOORD": 1418421.7353505001, "YCOORD": 576283.30044092203, "GlobalID": "64623466-a6d6-40d6-947d-8239f658c695" }, "geometry": { "type": "Point", "coordinates": [ -76.625397896829597, 39.248436842196199 ] } },
{ "type": "Feature", "properties": { "OBJECTID": 156, "Id": 0, "CAM_NUM": "351", "NOTES": " ", "LOCATION": "Carver Rd Front of School", "PROJ": "HABC Cherry Hill", "XCOORD": 1418938.1486877501, "YCOORD": 575444.69089767302, "GlobalID": "b254286f-7c72-4763-9251-6fc318c9cc3c" }, "geometry": { "type": "Point", "coordinates": [ -76.623586641284305, 39.246128599938601 ] } },
{ "type": "Feature", "properties": { "OBJECTID": 157, "Id": 0, "CAM_NUM": "352", "NOTES": " ", "LOCATION": "Maint Backyard 1", "PROJ": "HABC Cherry Hill", "XCOORD": 1416873.87394492, "YCOORD": 576212.49251167499, "GlobalID": "08aab40b-1126-4159-9943-5bbca1490751" }, "geometry": { "type": "Point", "coordinates": [ -76.630864437782094, 39.248259749656803 ] } },
{ "type": "Feature", "properties": { "OBJECTID": 158, "Id": 0, "CAM_NUM": "353", "NOTES": " ", "LOCATION": "Maint Backyard 2", "PROJ": "HABC Cherry Hill", "XCOORD": 1416942.110357, "YCOORD": 576120.04453383398, "GlobalID": "4d6df2b8-d68d-4039-889c-504e9f912ecb" }, "geometry": { "type": "Point", "coordinates": [ -76.630624815067094, 39.248005175086 ] } },
{ "type": "Feature", "properties": { "OBJECTID": 159, "Id": 0, "CAM_NUM": "354", "NOTES": " ", "LOCATION": "Maint. Garage Doors", "PROJ": "HABC Cherry Hill", "XCOORD": 1417199.70564234, "YCOORD": 576297.37980908202, "GlobalID": "f3bb26a0-22e6-48de-8810-c939b030ce92" }, "geometry": { "type": "Point", "coordinates": [ -76.629712706587497, 39.2484891855432 ] } },
{ "type": "Feature", "properties": { "OBJECTID": 160, "Id": 0, "CAM_NUM": "355", "NOTES": " ", "LOCATION": "Back of Comm. Ctr 1", "PROJ": "HABC Cherry Hill", "XCOORD": 1416824.2572462601, "YCOORD": 576110.07506558299, "GlobalID": "19a8018e-ed7f-4819-8ee1-ce62abd13409" }, "geometry": { "type": "Point", "coordinates": [ -76.631041096534602, 39.247979112308101 ] } },
{ "type": "Feature", "properties": { "OBJECTID": 161, "Id": 0, "CAM_NUM": "356", "NOTES": " ", "LOCATION": "Community Center 2 rear", "PROJ": "HABC Cherry Hill", "XCOORD": 1417213.5583049201, "YCOORD": 576352.01519849896, "GlobalID": "9ec816ae-7340-4a7a-810c-b97d3fedfcd4" }, "geometry": { "type": "Point", "coordinates": [ -76.629663009894102, 39.248639033205997 ] } },
{ "type": "Feature", "properties": { "OBJECTID": 162, "Id": 0, "CAM_NUM": "401", "NOTES": " ", "LOCATION": "Eastern Ave and S Macon St", "PROJ": "Greektown", "XCOORD": 1437655.0604008399, "YCOORD": 590435.52049601101, "GlobalID": "403f2bdf-f40f-43be-9d39-a97ede688c5a" }, "geometry": { "type": "Point", "coordinates": [ -76.5572425065982, 39.287055207193298 ] } },
{ "type": "Feature", "properties": { "OBJECTID": 163, "Id": 0, "CAM_NUM": "402", "NOTES": " ", "LOCATION": "Eastern Ave and Oldham St", "PROJ": "Greektown", "XCOORD": 1438095.6307139201, "YCOORD": 590459.562442675, "GlobalID": "33c8d81a-74fe-4a16-b4d8-e9ee2f0b37aa" }, "geometry": { "type": "Point", "coordinates": [ -76.555685589352706, 39.287115336727801 ] } },
{ "type": "Feature", "properties": { "OBJECTID": 164, "Id": 0, "CAM_NUM": "403", "NOTES": " ", "LOCATION": "Eastern Ave and S Lehigh St", "PROJ": "Greektown", "XCOORD": 1437388.58783667, "YCOORD": 590426.72720649804, "GlobalID": "28579969-494e-4037-84a1-0bcb934a7e69" }, "geometry": { "type": "Point", "coordinates": [ -76.558184085847401, 39.287034610019703 ] } },
{ "type": "Feature", "properties": { "OBJECTID": 165, "Id": 0, "CAM_NUM": "404", "NOTES": " ", "LOCATION": "Eastern Ave and S Newkirk St", "PROJ": "Greektown", "XCOORD": 1437872.9277472601, "YCOORD": 590408.50808283698, "GlobalID": "0e31b30a-b3f7-4511-b9d1-58b21bb91d9c" }, "geometry": { "type": "Point", "coordinates": [ -76.556473260264397, 39.2869781418702 ] } },
{ "type": "Feature", "properties": { "OBJECTID": 166, "Id": 0, "CAM_NUM": "405", "NOTES": " ", "LOCATION": "Eastern Ave and S Ponca St", "PROJ": "Greektown", "XCOORD": 1438340.3274030101, "YCOORD": 590499.43572249997, "GlobalID": "f78c6566-dea9-47bd-9937-3cde68640de6" }, "geometry": { "type": "Point", "coordinates": [ -76.554820405549606, 39.287221534562697 ] } },
{ "type": "Feature", "properties": { "OBJECTID": 167, "Id": 0, "CAM_NUM": "501", "NOTES": " ", "LOCATION": "Guilford Ave and E 28th St", "PROJ": "Greenmount", "XCOORD": 1421764.7007774301, "YCOORD": 603136.473768592, "GlobalID": "18161abb-e534-4a84-b910-c639f8894a5b" }, "geometry": { "type": "Point", "coordinates": [ -76.613192060068101, 39.322123362312603 ] } },
{ "type": "Feature", "properties": { "OBJECTID": 168, "Id": 0, "CAM_NUM": "502", "NOTES": " ", "LOCATION": "Greenmount Ave and E 28th St", "PROJ": "Greenmount", "XCOORD": 1422835.59758575, "YCOORD": 603157.06559091795, "GlobalID": "8ec3ae15-0a78-46cb-ae85-8d67faff900c" }, "geometry": { "type": "Point", "coordinates": [ -76.609406464400195, 39.322167377335198 ] } },
{ "type": "Feature", "properties": { "OBJECTID": 169, "Id": 0, "CAM_NUM": "503", "NOTES": " ", "LOCATION": "Greenmount Ave and E 27th St", "PROJ": "Greenmount", "XCOORD": 1422827.70127609, "YCOORD": 602718.38503783895, "GlobalID": "091ea358-eec2-4104-ae41-10007c43bd1d" }, "geometry": { "type": "Point", "coordinates": [ -76.609441009315901, 39.320963095979302 ] } },
{ "type": "Feature", "properties": { "OBJECTID": 170, "Id": 0, "CAM_NUM": "504", "NOTES": " ", "LOCATION": "Barclay St and E 27th St", "PROJ": "Greenmount", "XCOORD": 1422338.6884746, "YCOORD": 602710.51202209305, "GlobalID": "6f65b9ba-041e-49ea-9da8-ac65563ce016" }, "geometry": { "type": "Point", "coordinates": [ -76.611169606538098, 39.320947212181203 ] } },
{ "type": "Feature", "properties": { "OBJECTID": 171, "Id": 0, "CAM_NUM": "505", "NOTES": " ", "LOCATION": "Barclay St and Whitridge Ave", "PROJ": "Greenmount", "XCOORD": 1422338.9614399199, "YCOORD": 602938.49844275403, "GlobalID": "7c317b55-d2f1-4913-b0cd-17a06771c5fe" }, "geometry": { "type": "Point", "coordinates": [ -76.611165209275498, 39.321573133681902 ] } },
{ "type": "Feature", "properties": { "OBJECTID": 172, "Id": 0, "CAM_NUM": "506", "NOTES": " ", "LOCATION": "Greenmount Ave and E Lorraine Ave", "PROJ": "Greenmount", "XCOORD": 1422832.9138640901, "YCOORD": 602373.30206659401, "GlobalID": "d31ea07a-14bd-458d-97b9-3b2133fee5fa" }, "geometry": { "type": "Point", "coordinates": [ -76.609427803339102, 39.320015627508099 ] } },
{ "type": "Feature", "properties": { "OBJECTID": 173, "Id": 0, "CAM_NUM": "507", "NOTES": " ", "LOCATION": "Guilford Ave and E 26th St", "PROJ": "Greenmount", "XCOORD": 1421821.28432567, "YCOORD": 602171.26638142799, "GlobalID": "262ba8c3-78fe-432a-ba43-4fd32026dfb7" }, "geometry": { "type": "Point", "coordinates": [ -76.613006517974, 39.319472777330702 ] } },
{ "type": "Feature", "properties": { "OBJECTID": 174, "Id": 0, "CAM_NUM": "508", "NOTES": " ", "LOCATION": "Falls St Alley and E 25th St", "PROJ": "Greenmount", "XCOORD": 1422073.52233826, "YCOORD": 601670.22243601095, "GlobalID": "4edc31e2-6937-4e93-8110-7963da425079" }, "geometry": { "type": "Point", "coordinates": [ -76.612122493650006, 39.3180942474158 ] } },
{ "type": "Feature", "properties": { "OBJECTID": 175, "Id": 0, "CAM_NUM": "509", "NOTES": " ", "LOCATION": "Greenmount Ave and E 25th St", "PROJ": "Greenmount", "XCOORD": 1422800.6711464201, "YCOORD": 601708.661335513, "GlobalID": "dc647639-a97e-4bea-bfa7-d89ff495b6a4" }, "geometry": { "type": "Point", "coordinates": [ -76.609551815677705, 39.318191269041002 ] } },
{ "type": "Feature", "properties": { "OBJECTID": 176, "Id": 0, "CAM_NUM": "510", "NOTES": " ", "LOCATION": "Boone St and E 24th St", "PROJ": "Greenmount", "XCOORD": 1423060.5810596801, "YCOORD": 601167.50821833301, "GlobalID": "424aa946-31d3-4f86-8487-74171d887b83" }, "geometry": { "type": "Point", "coordinates": [ -76.608641366506006, 39.316702504549802 ] } },
{ "type": "Feature", "properties": { "OBJECTID": 177, "Id": 0, "CAM_NUM": "511", "NOTES": " ", "LOCATION": "Cokesbury Ave and E 23rd St", "PROJ": "Greenmount", "XCOORD": 1423411.97602618, "YCOORD": 600926.78658692504, "GlobalID": "51f9af4c-91dd-46f7-b983-defe5bbdbaea" }, "geometry": { "type": "Point", "coordinates": [ -76.607403049624594, 39.316037472685501 ] } },
{ "type": "Feature", "properties": { "OBJECTID": 178, "Id": 0, "CAM_NUM": "512", "NOTES": " ", "LOCATION": "Brentwood Ave and E 24th St", "PROJ": "Greenmount", "XCOORD": 1422558.83075084, "YCOORD": 600998.86321441794, "GlobalID": "e5e6d9a8-1182-4678-bb4a-29c7d2c0313d" }, "geometry": { "type": "Point", "coordinates": [ -76.610417304689093, 39.316245390093002 ] } },
{ "type": "Feature", "properties": { "OBJECTID": 179, "Id": 0, "CAM_NUM": "513", "NOTES": " ", "LOCATION": "Greenmount Ave and E 23rd St", "PROJ": "Greenmount", "XCOORD": 1422804.63308075, "YCOORD": 600730.97923575295, "GlobalID": "b60b1eb5-feb5-437c-8384-745ccc61b47b" }, "geometry": { "type": "Point", "coordinates": [ -76.609552592147097, 39.315507044447003 ] } },
{ "type": "Feature", "properties": { "OBJECTID": 180, "Id": 0, "CAM_NUM": "514", "NOTES": " ", "LOCATION": "Guilford Ave and E 23rd St", "PROJ": "Greenmount", "XCOORD": 1421895.2979571701, "YCOORD": 600687.06757816696, "GlobalID": "e568e2b5-4f5e-4ee1-9860-39177c944f4f" }, "geometry": { "type": "Point", "coordinates": [ -76.612767165461804, 39.315397121003201 ] } },
{ "type": "Feature", "properties": { "OBJECTID": 181, "Id": 0, "CAM_NUM": "515", "NOTES": " ", "LOCATION": "E 23rd St and Boone St", "PROJ": "Greenmount", "XCOORD": 1423196.4620215001, "YCOORD": 600704.55934108805, "GlobalID": "6c332348-30af-4ebc-b7d3-bcaf5bc666ce" }, "geometry": { "type": "Point", "coordinates": [ -76.608168129874201, 39.315429900690397 ] } },
{ "type": "Feature", "properties": { "OBJECTID": 182, "Id": 0, "CAM_NUM": "516", "NOTES": " ", "LOCATION": "Greenmount Ave and E 22nd St", "PROJ": "Greenmount", "XCOORD": 1422805.53891884, "YCOORD": 600351.10597975599, "GlobalID": "ae0f75f8-d70c-476b-9346-80e413102bba" }, "geometry": { "type": "Point", "coordinates": [ -76.609555132985506, 39.314464109892697 ] } },
{ "type": "Feature", "properties": { "OBJECTID": 183, "Id": 0, "CAM_NUM": "517", "NOTES": " ", "LOCATION": "Homewood Ave and E 22nd St", "PROJ": "Greenmount", "XCOORD": 1423460.80630909, "YCOORD": 600426.612718508, "GlobalID": "4c038462-8dbb-4b8b-81c4-1aa1e8013c04" }, "geometry": { "type": "Point", "coordinates": [ -76.607238070581303, 39.314663692800799 ] } },
{ "type": "Feature", "properties": { "OBJECTID": 184, "Id": 0, "CAM_NUM": "518", "NOTES": " ", "LOCATION": "Barclay St and 21st 1/2 St", "PROJ": "Greenmount", "XCOORD": 1422350.56017001, "YCOORD": 600178.45671875798, "GlobalID": "7eefd023-a86a-4768-83e9-2c1f4cd1d183" }, "geometry": { "type": "Point", "coordinates": [ -76.611165765617699, 39.313995440983902 ] } },
{ "type": "Feature", "properties": { "OBJECTID": 185, "Id": 0, "CAM_NUM": "519", "NOTES": " ", "LOCATION": "Guilford Ave and E 21st St", "PROJ": "Greenmount", "XCOORD": 1421969.6114568401, "YCOORD": 599975.91381675005, "GlobalID": "49f7aa4f-408e-438e-a880-68bc50ca13ec" }, "geometry": { "type": "Point", "coordinates": [ -76.612515184145295, 39.313443815906403 ] } },
{ "type": "Feature", "properties": { "OBJECTID": 186, "Id": 0, "CAM_NUM": "520", "NOTES": " ", "LOCATION": "Boone St and E 21st St", "PROJ": "Greenmount", "XCOORD": 1423147.0113329999, "YCOORD": 600042.17549525201, "GlobalID": "3c659890-a1a5-47b4-8c40-70f141d9e58b" }, "geometry": { "type": "Point", "coordinates": [ -76.608352949848907, 39.313611939862803 ] } },
{ "type": "Feature", "properties": { "OBJECTID": 187, "Id": 0, "CAM_NUM": "521", "NOTES": " ", "LOCATION": "Greenmount Ave and Worsley St", "PROJ": "Greenmount", "XCOORD": 1422812.4828025801, "YCOORD": 599743.23088316596, "GlobalID": "60469567-b172-4dad-9e8a-c3fbb0940351" }, "geometry": { "type": "Point", "coordinates": [ -76.609539780418501, 39.312795135558702 ] } },
{ "type": "Feature", "properties": { "OBJECTID": 188, "Id": 0, "CAM_NUM": "522", "NOTES": " ", "LOCATION": "Barclay St and E 20th St", "PROJ": "Greenmount", "XCOORD": 1422414.2611580901, "YCOORD": 599602.41128292703, "GlobalID": "a6213d53-0121-44b3-9ee7-6df58d60de5d" }, "geometry": { "type": "Point", "coordinates": [ -76.610949304973204, 39.3124131895988 ] } },
{ "type": "Feature", "properties": { "OBJECTID": 189, "Id": 0, "CAM_NUM": "523", "NOTES": " ", "LOCATION": "Barclay St and Heaver St", "PROJ": "Greenmount", "XCOORD": 1422393.1086413399, "YCOORD": 599454.20258984005, "GlobalID": "3e828493-ec64-469a-a05a-8598e6695333" }, "geometry": { "type": "Point", "coordinates": [ -76.6110262941245, 39.312006536794698 ] } },
{ "type": "Feature", "properties": { "OBJECTID": 190, "Id": 0, "CAM_NUM": "524", "NOTES": " ", "LOCATION": "Greenmount Ave and E North Ave", "PROJ": "Greenmount", "XCOORD": 1422801.38800851, "YCOORD": 599186.80679917301, "GlobalID": "0e155342-89bb-418e-924a-69ec74e96116" }, "geometry": { "type": "Point", "coordinates": [ -76.609587402101596, 39.311267628655997 ] } },
{ "type": "Feature", "properties": { "OBJECTID": 191, "Id": 0, "CAM_NUM": "525", "NOTES": " ", "LOCATION": "E North Ave and Guilford Ave", "PROJ": "Greenmount", "XCOORD": 1422198.87477784, "YCOORD": 599228.72600667202, "GlobalID": "452dcf08-236a-4c72-b44a-2f82a68a64d9" }, "geometry": { "type": "Point", "coordinates": [ -76.611716141431899, 39.3113897710789 ] } },
{ "type": "Feature", "properties": { "OBJECTID": 192, "Id": 0, "CAM_NUM": "526", "NOTES": " ", "LOCATION": "N Calvert St and McAllister St", "PROJ": "Greenmount", "XCOORD": 1421612.57083234, "YCOORD": 598963.45488366496, "GlobalID": "e72a38bd-bd15-43a8-9bf4-0a8d3b258064" }, "geometry": { "type": "Point", "coordinates": [ -76.6137921949407, 39.310668309096201 ] } },
{ "type": "Feature", "properties": { "OBJECTID": 193, "Id": 0, "CAM_NUM": "527", "NOTES": " ", "LOCATION": "Guilford Ave and E Lafayette Ave", "PROJ": "Greenmount", "XCOORD": 1422040.7753564999, "YCOORD": 598697.18934008502, "GlobalID": "8703160e-bea5-4f7a-b792-2330248a9c6e" }, "geometry": { "type": "Point", "coordinates": [ -76.612282867208606, 39.309932305253902 ] } },
{ "type": "Feature", "properties": { "OBJECTID": 194, "Id": 0, "CAM_NUM": "528", "NOTES": " ", "LOCATION": "Barclay St and E Lafayette Ave", "PROJ": "Greenmount", "XCOORD": 1422458.18167393, "YCOORD": 598716.24113926303, "GlobalID": "aa2c8ee6-c754-4c9b-ba25-a08ab28fc4e7" }, "geometry": { "type": "Point", "coordinates": [ -76.610807433310299, 39.309979734757299 ] } },
{ "type": "Feature", "properties": { "OBJECTID": 195, "Id": 0, "CAM_NUM": "529", "NOTES": " ", "LOCATION": "Barclay St and Pitman Pl", "PROJ": "Greenmount", "XCOORD": 1422461.61736259, "YCOORD": 598160.646121845, "GlobalID": "1cbf017d-28d4-4e7a-9d54-62567f8a7948" }, "geometry": { "type": "Point", "coordinates": [ -76.610803662507607, 39.308454332131902 ] } },
{ "type": "Feature", "properties": { "OBJECTID": 196, "Id": 0, "CAM_NUM": "530", "NOTES": " ", "LOCATION": "Greenmount Ave and E Preston St", "PROJ": "Greenmount", "XCOORD": 1423235.67093259, "YCOORD": 596819.49788550998, "GlobalID": "2db8e007-b88b-4915-a1b0-9da33f8ac431" }, "geometry": { "type": "Point", "coordinates": [ -76.608088501236196, 39.304763172370002 ] } },
{ "type": "Feature", "properties": { "OBJECTID": 197, "Id": 0, "CAM_NUM": "531", "NOTES": " ", "LOCATION": "Greenmount Ave and E Biddle St", "PROJ": "Greenmount", "XCOORD": 1423277.8237354299, "YCOORD": 596436.99077650905, "GlobalID": "958fe9d9-dc19-418c-9839-a57c748fac24" }, "geometry": { "type": "Point", "coordinates": [ -76.607945345952402, 39.303712517047998 ] } },
{ "type": "Feature", "properties": { "OBJECTID": 198, "Id": 0, "CAM_NUM": "532", "NOTES": " ", "LOCATION": "Greenmount Ave and E Chase St", "PROJ": "Greenmount", "XCOORD": 1423361.4144474999, "YCOORD": 596051.94299016905, "GlobalID": "3f8dbd3b-1014-4af5-8c05-30525972096f" }, "geometry": { "type": "Point", "coordinates": [ -76.607655803690193, 39.302654397024497 ] } },
{ "type": "Feature", "properties": { "OBJECTID": 199, "Id": 0, "CAM_NUM": "533", "NOTES": " ", "LOCATION": "Greenmount Ave and E Eager St", "PROJ": "Greenmount", "XCOORD": 1423457.97659034, "YCOORD": 595599.43930201198, "GlobalID": "5d0f62eb-c05c-4523-91cf-1361c6a43fa3" }, "geometry": { "type": "Point", "coordinates": [ -76.607321458739705, 39.301410925067302 ] } },
{ "type": "Feature", "properties": { "OBJECTID": 200, "Id": 0, "CAM_NUM": "534", "NOTES": " ", "LOCATION": "Greenmount Ave and E 29th St", "PROJ": "Greenmount", "XCOORD": 1422807.4903585, "YCOORD": 603596.536496758, "GlobalID": "10426a16-d16e-452f-98c7-a1a3537c2e21" }, "geometry": { "type": "Point", "coordinates": [ -76.609499169808899, 39.323374251001503 ] } },
{ "type": "Feature", "properties": { "OBJECTID": 201, "Id": 0, "CAM_NUM": "535", "NOTES": " ", "LOCATION": "Greenmount Ave and E 30th St", "PROJ": "Greenmount", "XCOORD": 1422811.1501281001, "YCOORD": 604080.93250958598, "GlobalID": "08d7db9c-12e8-4ae1-80db-67e5b8b7c6ec" }, "geometry": { "type": "Point", "coordinates": [ -76.609478908779096, 39.324704090479599 ] } },
{ "type": "Feature", "properties": { "OBJECTID": 202, "Id": 0, "CAM_NUM": "536", "NOTES": " ", "LOCATION": "Greenmount Ave and E 31st St", "PROJ": "Greenmount", "XCOORD": 1422811.85124217, "YCOORD": 604557.16843375599, "GlobalID": "291979ae-3465-4529-a43f-2e4341da80a2" }, "geometry": { "type": "Point", "coordinates": [ -76.609469228883299, 39.3260115610993 ] } },
{ "type": "Feature", "properties": { "OBJECTID": 203, "Id": 0, "CAM_NUM": "537", "NOTES": " ", "LOCATION": "Greenmount Ave and E 32nd St", "PROJ": "Greenmount", "XCOORD": 1422795.8434001801, "YCOORD": 604970.89398425794, "GlobalID": "d5f0d6c0-66d6-4bad-9809-416b69f0717a" }, "geometry": { "type": "Point", "coordinates": [ -76.609519559064495, 39.327147608821498 ] } },
{ "type": "Feature", "properties": { "OBJECTID": 204, "Id": 0, "CAM_NUM": "538", "NOTES": " ", "LOCATION": "Greenmount Ave and E 33rd St", "PROJ": "Greenmount", "XCOORD": 1422847.21796934, "YCOORD": 605398.08637133206, "GlobalID": "13bfcc28-0cbd-4faa-affd-4f5737848af4" }, "geometry": { "type": "Point", "coordinates": [ -76.609331490755295, 39.328319837087399 ] } },
{ "type": "Feature", "properties": { "OBJECTID": 205, "Id": 0, "CAM_NUM": "601", "NOTES": " ", "LOCATION": "E Monument St and N Chester St", "PROJ": "Monument", "XCOORD": 1428964.8438574199, "YCOORD": 594601.04497334396, "GlobalID": "c452fdd4-b7f1-4b38-9c21-9ba2ed59b1c9" }, "geometry": { "type": "Point", "coordinates": [ -76.587878042086899, 39.298603225826 ] } },
{ "type": "Feature", "properties": { "OBJECTID": 206, "Id": 0, "CAM_NUM": "602", "NOTES": " ", "LOCATION": "McElderry St and N Duncan St", "PROJ": "Monument", "XCOORD": 1429165.00421825, "YCOORD": 594230.54702667904, "GlobalID": "3e2edfd7-c9b7-4e0c-9422-591756be10e9" }, "geometry": { "type": "Point", "coordinates": [ -76.5871766936379, 39.2975835542588 ] } },
{ "type": "Feature", "properties": { "OBJECTID": 207, "Id": 0, "CAM_NUM": "603", "NOTES": " ", "LOCATION": "E Monument St and Collington", "PROJ": "Monument", "XCOORD": 1429317.80870268, "YCOORD": 594653.83292549802, "GlobalID": "7c5c0c41-c14d-4959-a179-bf5539a459c1" }, "geometry": { "type": "Point", "coordinates": [ -76.586629992551806, 39.298743771778298 ] } },
{ "type": "Feature", "properties": { "OBJECTID": 208, "Id": 0, "CAM_NUM": "604", "NOTES": " ", "LOCATION": "E Madison St and N Mederia St", "PROJ": "Monument", "XCOORD": 1429500.9835331701, "YCOORD": 595011.23280125903, "GlobalID": "5d586e5b-8145-4f45-bf40-5d06a07e7949" }, "geometry": { "type": "Point", "coordinates": [ -76.585977013570599, 39.299722720674602 ] } },
{ "type": "Feature", "properties": { "OBJECTID": 209, "Id": 0, "CAM_NUM": "605", "NOTES": " ", "LOCATION": "E Monument St and N Patterson Park Ave", "PROJ": "Monument", "XCOORD": 1429772.36258359, "YCOORD": 594643.53438967501, "GlobalID": "ec958e21-10c9-42a5-88ab-5d6855cff766" }, "geometry": { "type": "Point", "coordinates": [ -76.585023984107906, 39.298709835565099 ] } },
{ "type": "Feature", "properties": { "OBJECTID": 210, "Id": 0, "CAM_NUM": "606", "NOTES": " ", "LOCATION": "McElderry St and N Bradford St", "PROJ": "Monument", "XCOORD": 1429965.0941535099, "YCOORD": 594272.39766475605, "GlobalID": "173c5e2c-e1e2-4ddc-bec9-eb04dba4ea68" }, "geometry": { "type": "Point", "coordinates": [ -76.584348935279493, 39.297688486118801 ] } },
{ "type": "Feature", "properties": { "OBJECTID": 211, "Id": 0, "CAM_NUM": "607", "NOTES": " ", "LOCATION": "E Monument St and N Montford Ave", "PROJ": "Monument", "XCOORD": 1430166.15313458, "YCOORD": 594693.70095600199, "GlobalID": "f5e80b14-04e9-4082-aa84-cb6c143ac0b6" }, "geometry": { "type": "Point", "coordinates": [ -76.583631710758098, 39.2988426431438 ] } },
{ "type": "Feature", "properties": { "OBJECTID": 212, "Id": 0, "CAM_NUM": "608", "NOTES": " ", "LOCATION": "E Madison St and N Port", "PROJ": "Monument", "XCOORD": 1430318.2925940901, "YCOORD": 595053.77438284503, "GlobalID": "c9d388bb-7479-4b3e-b9cf-498a2560999e" }, "geometry": { "type": "Point", "coordinates": [ -76.583088312006595, 39.299829304665302 ] } },
{ "type": "Feature", "properties": { "OBJECTID": 213, "Id": 0, "CAM_NUM": "609", "NOTES": " ", "LOCATION": "E Monument St and N Milton Ave", "PROJ": "Monument", "XCOORD": 1430567.2612562601, "YCOORD": 594712.87841108395, "GlobalID": "da6d20db-cd26-4738-8807-01318088708f" }, "geometry": { "type": "Point", "coordinates": [ -76.582214076490203, 39.298890262848602 ] } },
{ "type": "Feature", "properties": { "OBJECTID": 214, "Id": 0, "CAM_NUM": "610", "NOTES": " ", "LOCATION": "McElderry St and N Rose St", "PROJ": "Monument", "XCOORD": 1430779.6640466701, "YCOORD": 594317.60590767895, "GlobalID": "bd25e62a-738c-45fd-b0bf-36e67fe766d7" }, "geometry": { "type": "Point", "coordinates": [ -76.581469949681505, 39.297802385846197 ] } },
{ "type": "Feature", "properties": { "OBJECTID": 215, "Id": 0, "CAM_NUM": "611", "NOTES": " ", "LOCATION": "E Monument St and N Luzerne Ave", "PROJ": "Monument", "XCOORD": 1430962.8208325999, "YCOORD": 594734.76058517396, "GlobalID": "9707c134-c69f-42f6-95cf-94b4601326d8" }, "geometry": { "type": "Point", "coordinates": [ -76.580816002362496, 39.298945361101701 ] } },
{ "type": "Feature", "properties": { "OBJECTID": 216, "Id": 0, "CAM_NUM": "612", "NOTES": " ", "LOCATION": "E Madison St and N Glover St", "PROJ": "Monument", "XCOORD": 1431131.9422135099, "YCOORD": 595125.89891050803, "GlobalID": "236cb3f7-c6e4-4cf0-8a72-dd42e42b74b8" }, "geometry": { "type": "Point", "coordinates": [ -76.580212051980595, 39.3000170826543 ] } },
{ "type": "Feature", "properties": { "OBJECTID": 217, "Id": 0, "CAM_NUM": "613", "NOTES": " ", "LOCATION": "E Monument St and N Lakewood Ave", "PROJ": "Monument", "XCOORD": 1431372.68845117, "YCOORD": 594734.91970558499, "GlobalID": "38a2e2ce-fb11-461b-89cd-068f39e320e0" }, "geometry": { "type": "Point", "coordinates": [ -76.579367721869204, 39.298940621916003 ] } },
{ "type": "Feature", "properties": { "OBJECTID": 218, "Id": 0, "CAM_NUM": "614", "NOTES": " ", "LOCATION": "McElderry St and N Belnord Ave", "PROJ": "Monument", "XCOORD": 1431576.4072038401, "YCOORD": 594360.64092658495, "GlobalID": "61a5770b-8ac3-4f65-b8d8-b2073c34f0f4" }, "geometry": { "type": "Point", "coordinates": [ -76.578653980602795, 39.297910474431902 ] } },
{ "type": "Feature", "properties": { "OBJECTID": 219, "Id": 0, "CAM_NUM": "615", "NOTES": " ", "LOCATION": "E Monument St and N Kenwood Ave", "PROJ": "Monument", "XCOORD": 1431719.7963527599, "YCOORD": 594754.149654001, "GlobalID": "371b9d61-335b-4116-82fa-cad0a9fce750" }, "geometry": { "type": "Point", "coordinates": [ -76.578140893212307, 39.298989019558697 ] } },
{ "type": "Feature", "properties": { "OBJECTID": 220, "Id": 0, "CAM_NUM": "616", "NOTES": " ", "LOCATION": "E Madison St and N Streeper St", "PROJ": "Monument", "XCOORD": 1431934.3070785899, "YCOORD": 595168.00020424998, "GlobalID": "3db53c86-1527-4728-a6b0-8d7b069550ff" }, "geometry": { "type": "Point", "coordinates": [ -76.577376143552996, 39.300122506061001 ] } },
{ "type": "Feature", "properties": { "OBJECTID": 221, "Id": 0, "CAM_NUM": "617", "NOTES": " ", "LOCATION": "McElderry St and N Linwood Ave", "PROJ": "Monument", "XCOORD": 1432183.2826304999, "YCOORD": 594367.21735701, "GlobalID": "753ac88b-6043-4a43-8906-c2fd1268c3a1" }, "geometry": { "type": "Point", "coordinates": [ -76.5765094942779, 39.297920819984597 ] } },
{ "type": "Feature", "properties": { "OBJECTID": 222, "Id": 0, "CAM_NUM": "618", "NOTES": " ", "LOCATION": "E Monument St and N Curley St", "PROJ": "Monument", "XCOORD": 1432329.80267867, "YCOORD": 594787.53803867102, "GlobalID": "0d7058ae-6e21-412c-a34e-426389a4928a" }, "geometry": { "type": "Point", "coordinates": [ -76.575984871031807, 39.299072926995599 ] } },
{ "type": "Feature", "properties": { "OBJECTID": 223, "Id": 0, "CAM_NUM": "619", "NOTES": " ", "LOCATION": "McElderry St and N Potomac St", "PROJ": "Monument", "XCOORD": 1432585.2752648401, "YCOORD": 594415.76516017294, "GlobalID": "22853eff-d890-4dd9-b10c-d4eeed6d8359" }, "geometry": { "type": "Point", "coordinates": [ -76.575088265199597, 39.298048977634203 ] } },
{ "type": "Feature", "properties": { "OBJECTID": 224, "Id": 0, "CAM_NUM": "620", "NOTES": " ", "LOCATION": "E Monument St and Decker", "PROJ": "Monument", "XCOORD": 1432762.53967409, "YCOORD": 594812.12821258605, "GlobalID": "03aa8a48-5592-416c-9fe1-b7463cdadce2" }, "geometry": { "type": "Point", "coordinates": [ -76.5744553761795, 39.299134910103298 ] } },
{ "type": "Feature", "properties": { "OBJECTID": 225, "Id": 0, "CAM_NUM": "621", "NOTES": " ", "LOCATION": "E Madison St and N Ellwood Ave", "PROJ": "Monument", "XCOORD": 1432936.515376, "YCOORD": 595225.91970783495, "GlobalID": "a620ddfe-bceb-414b-b0da-ef77f61a1b95" }, "geometry": { "type": "Point", "coordinates": [ -76.5738338012182, 39.300268730048899 ] } },
{ "type": "Feature", "properties": { "OBJECTID": 226, "Id": 0, "CAM_NUM": "622", "NOTES": " ", "LOCATION": "E Monument St and N Robinson St", "PROJ": "Monument", "XCOORD": 1433132.03499809, "YCOORD": 594833.00677976001, "GlobalID": "43d42a41-0372-41ff-abdc-cca7f5aea635" }, "geometry": { "type": "Point", "coordinates": [ -76.573149406793107, 39.299187495298298 ] } },
{ "type": "Feature", "properties": { "OBJECTID": 227, "Id": 0, "CAM_NUM": "623", "NOTES": " ", "LOCATION": "E Madison St and N Curley St", "PROJ": "Monument", "XCOORD": 1432336.10844034, "YCOORD": 595168.527762249, "GlobalID": "6f909141-6655-46a8-9f35-0f489cc9b676" }, "geometry": { "type": "Point", "coordinates": [ -76.575956336001994, 39.3001188388778 ] } },
{ "type": "Feature", "properties": { "OBJECTID": 228, "Id": 0, "CAM_NUM": "624", "NOTES": " ", "LOCATION": "McElderry St and N Robinson St", "PROJ": "Monument", "XCOORD": 1433161.67142175, "YCOORD": 594426.31041467201, "GlobalID": "93643f02-4765-41fe-a968-23c02549aa2c" }, "geometry": { "type": "Point", "coordinates": [ -76.573051406494798, 39.298070545770102 ] } },
{ "type": "Feature", "properties": { "OBJECTID": 229, "Id": 0, "CAM_NUM": "625", "NOTES": " ", "LOCATION": "Milton St and E Biddle St", "PROJ": "Monument", "XCOORD": 1430410.12541567, "YCOORD": 596807.66326349997, "GlobalID": "be53f3c2-08c4-461a-abb6-dd65487aa892" }, "geometry": { "type": "Point", "coordinates": [ -76.582735486498393, 39.304643383504697 ] } },
{ "type": "Feature", "properties": { "OBJECTID": 230, "Id": 0, "CAM_NUM": "626", "NOTES": " ", "LOCATION": "Montford St and Ashland Ave", "PROJ": "Monument", "XCOORD": 1430079.73729692, "YCOORD": 595475.89099267102, "GlobalID": "77d35caa-18bd-4d7a-b647-032b96a98a04" }, "geometry": { "type": "Point", "coordinates": [ -76.583924465715796, 39.300991197481203 ] } },
{ "type": "Feature", "properties": { "OBJECTID": 231, "Id": 0, "CAM_NUM": "627", "NOTES": " ", "LOCATION": "N Collington St and E Jefferson St", "PROJ": "Monument", "XCOORD": 1429380.6123828399, "YCOORD": 593879.38401508296, "GlobalID": "87f10d1f-4ac7-4de8-9be9-450a99e2fbf7" }, "geometry": { "type": "Point", "coordinates": [ -76.586420472436103, 39.296616769441002 ] } },
{ "type": "Feature", "properties": { "OBJECTID": 232, "Id": 0, "CAM_NUM": "628", "NOTES": " ", "LOCATION": "E Jefferson St and N Glover St", "PROJ": "Monument", "XCOORD": 1431208.7963904999, "YCOORD": 593980.96911375201, "GlobalID": "0ee0b469-8d73-4f52-9fc1-42034caef7d0" }, "geometry": { "type": "Point", "coordinates": [ -76.579959096933294, 39.296872750625802 ] } },
{ "type": "Feature", "properties": { "OBJECTID": 233, "Id": 0, "CAM_NUM": "703", "NOTES": " ", "LOCATION": "W North Ave and Thomas Ave", "PROJ": "North Ave West", "XCOORD": 1409084.9567799999, "YCOORD": 598436.196095675, "GlobalID": "0355bf21-c104-471a-845f-68ef7905b0b9" }, "geometry": { "type": "Point", "coordinates": [ -76.658073303515806, 39.309357907960099 ] } },
{ "type": "Feature", "properties": { "OBJECTID": 234, "Id": 0, "CAM_NUM": "704", "NOTES": " ", "LOCATION": "N Warwick Ave and Westwood Ave", "PROJ": "North Ave West", "XCOORD": 1409342.54648793, "YCOORD": 598095.98450575804, "GlobalID": "f57c1211-201a-4fda-ab36-daaa9dca1e66" }, "geometry": { "type": "Point", "coordinates": [ -76.657167482005505, 39.308421217168799 ] } },
{ "type": "Feature", "properties": { "OBJECTID": 235, "Id": 0, "CAM_NUM": "705", "NOTES": " ", "LOCATION": "Moreland Ave and Westwood Ave", "PROJ": "North Ave West", "XCOORD": 1409680.91621801, "YCOORD": 598143.76229733205, "GlobalID": "78a10993-159b-4549-b364-ae346ada4f0e" }, "geometry": { "type": "Point", "coordinates": [ -76.6559710434815, 39.3085488944917 ] } },
{ "type": "Feature", "properties": { "OBJECTID": 236, "Id": 0, "CAM_NUM": "706", "NOTES": " ", "LOCATION": "W North Ave and Moreland Ave", "PROJ": "North Ave West", "XCOORD": 1409708.61334109, "YCOORD": 598468.99294608796, "GlobalID": "b749b774-f8a9-4e99-a837-61c413b8672e" }, "geometry": { "type": "Point", "coordinates": [ -76.655868828592503, 39.309441516580499 ] } },
{ "type": "Feature", "properties": { "OBJECTID": 237, "Id": 0, "CAM_NUM": "707", "NOTES": " ", "LOCATION": "N Bentalou St and Westwood Ave", "PROJ": "North Ave West", "XCOORD": 1410249.08371684, "YCOORD": 598172.26945817505, "GlobalID": "8489b376-c448-4ae2-a293-945e50d9f453" }, "geometry": { "type": "Point", "coordinates": [ -76.6539627481948, 39.308621264143802 ] } },
{ "type": "Feature", "properties": { "OBJECTID": 238, "Id": 0, "CAM_NUM": "708", "NOTES": " ", "LOCATION": "N Smallwood St and Westwood Ave", "PROJ": "North Ave West", "XCOORD": 1410608.7503203501, "YCOORD": 598159.41482508206, "GlobalID": "f58de6e7-a47d-4f41-8824-d925847d69ea" }, "geometry": { "type": "Point", "coordinates": [ -76.652691852030102, 39.308582222333499 ] } },
{ "type": "Feature", "properties": { "OBJECTID": 239, "Id": 0, "CAM_NUM": "709", "NOTES": " ", "LOCATION": "W North Ave and N Smallwood St", "PROJ": "North Ave West", "XCOORD": 1410571.477429, "YCOORD": 598559.470455423, "GlobalID": "ab274913-0c9b-4d65-a2da-49c57d8093c5" }, "geometry": { "type": "Point", "coordinates": [ -76.652818198236304, 39.3096809493085 ] } },
{ "type": "Feature", "properties": { "OBJECTID": 240, "Id": 0, "CAM_NUM": "710", "NOTES": " ", "LOCATION": "N Smallwood St and Ridgehill Ave", "PROJ": "North Ave West", "XCOORD": 1410588.3438651001, "YCOORD": 599120.58153791702, "GlobalID": "fd1c5465-0330-41d5-a16c-6784bf875f9f" }, "geometry": { "type": "Point", "coordinates": [ -76.652751047943994, 39.311221281994598 ] } },
{ "type": "Feature", "properties": { "OBJECTID": 241, "Id": 0, "CAM_NUM": "711", "NOTES": " ", "LOCATION": "N Pulaski St and Westwood Ave", "PROJ": "North Ave West", "XCOORD": 1411035.99093567, "YCOORD": 598212.22935201204, "GlobalID": "1ba9dbe8-11d1-4902-8744-fc5e3dd5b0c3" }, "geometry": { "type": "Point", "coordinates": [ -76.651181262854294, 39.3087227503636 ] } },
{ "type": "Feature", "properties": { "OBJECTID": 242, "Id": 0, "CAM_NUM": "712", "NOTES": " ", "LOCATION": "W North Ave and N Pulaski St", "PROJ": "North Ave West", "XCOORD": 1410980.9388804301, "YCOORD": 598528.85437491501, "GlobalID": "ab8422a6-36b5-488d-a0ab-a135a66c1979" }, "geometry": { "type": "Point", "coordinates": [ -76.651371544913999, 39.309592609794997 ] } },
{ "type": "Feature", "properties": { "OBJECTID": 243, "Id": 0, "CAM_NUM": "713", "NOTES": " ", "LOCATION": "N Pulaski St and Herbert St", "PROJ": "North Ave West", "XCOORD": 1410999.00544535, "YCOORD": 598784.33319467294, "GlobalID": "720d6b2c-82c8-46c3-935f-59de5396bd25" }, "geometry": { "type": "Point", "coordinates": [ -76.651304247705198, 39.310293827652899 ] } },
{ "type": "Feature", "properties": { "OBJECTID": 244, "Id": 0, "CAM_NUM": "714", "NOTES": " ", "LOCATION": "N Pulaski St and Walbrook Ave", "PROJ": "North Ave West", "XCOORD": 1410957.68203717, "YCOORD": 598964.17699508404, "GlobalID": "7db1c8a6-1b20-4c2b-ac81-49a561e2f2cd" }, "geometry": { "type": "Point", "coordinates": [ -76.651447862141893, 39.310788015083602 ] } },
{ "type": "Feature", "properties": { "OBJECTID": 245, "Id": 0, "CAM_NUM": "715", "NOTES": " ", "LOCATION": "W North Ave and N Payson St", "PROJ": "North Ave West", "XCOORD": 1411366.1684249199, "YCOORD": 598598.01007650804, "GlobalID": "0787d1de-925c-45da-9595-a9ca5dfa0753" }, "geometry": { "type": "Point", "coordinates": [ -76.650009180468402, 39.309778427171402 ] } },
{ "type": "Feature", "properties": { "OBJECTID": 246, "Id": 0, "CAM_NUM": "716", "NOTES": " ", "LOCATION": "N Payson St and Herbert St", "PROJ": "North Ave West", "XCOORD": 1411396.0016985801, "YCOORD": 598790.62550492596, "GlobalID": "c00531be-0b6b-4ca1-9d1d-58d41d0b024f" }, "geometry": { "type": "Point", "coordinates": [ -76.649901136767298, 39.310306931328199 ] } },
{ "type": "Feature", "properties": { "OBJECTID": 247, "Id": 0, "CAM_NUM": "717", "NOTES": " ", "LOCATION": "N Payson St and Walbrook Ave", "PROJ": "North Ave West", "XCOORD": 1411392.282874, "YCOORD": 598967.59070217598, "GlobalID": "960f2d63-3290-4a09-ab62-b38397dda01c" }, "geometry": { "type": "Point", "coordinates": [ -76.649911881044304, 39.310792821526199 ] } },
{ "type": "Feature", "properties": { "OBJECTID": 248, "Id": 0, "CAM_NUM": "718", "NOTES": " ", "LOCATION": "N Payson St and Ridgehill Ave", "PROJ": "North Ave West", "XCOORD": 1411376.4049529999, "YCOORD": 599182.78515367198, "GlobalID": "6377c6aa-dd9d-4140-bcca-2e279f90b982" }, "geometry": { "type": "Point", "coordinates": [ -76.649965079509997, 39.3113837965602 ] } },
{ "type": "Feature", "properties": { "OBJECTID": 249, "Id": 0, "CAM_NUM": "719", "NOTES": " ", "LOCATION": "Appleton St and Westwood Ave", "PROJ": "North Ave West", "XCOORD": 1411677.88696159, "YCOORD": 598244.19582350599, "GlobalID": "f7adaed3-dc77-4e06-9b0b-60b6c7df2b60" }, "geometry": { "type": "Point", "coordinates": [ -76.6489123520509, 39.308803757362902 ] } },
{ "type": "Feature", "properties": { "OBJECTID": 250, "Id": 0, "CAM_NUM": "720", "NOTES": " ", "LOCATION": "N Monroe St and Westwood Ave", "PROJ": "North Ave West", "XCOORD": 1411931.3903915901, "YCOORD": 598256.42742633796, "GlobalID": "831460ef-56d2-4fa3-86f3-56478aa6e772" }, "geometry": { "type": "Point", "coordinates": [ -76.648016297039405, 39.308834658659997 ] } },
{ "type": "Feature", "properties": { "OBJECTID": 251, "Id": 0, "CAM_NUM": "721", "NOTES": " ", "LOCATION": "W North Ave and N Monroe St", "PROJ": "North Ave West", "XCOORD": 1411909.73820393, "YCOORD": 598635.78756000102, "GlobalID": "ff7167df-b19e-4113-b92e-340646ec6e13" }, "geometry": { "type": "Point", "coordinates": [ -76.648087648314799, 39.309876406580699 ] } },
{ "type": "Feature", "properties": { "OBJECTID": 252, "Id": 0, "CAM_NUM": "722", "NOTES": " ", "LOCATION": "N Monroe St and Walbrook Ave", "PROJ": "North Ave West", "XCOORD": 1411881.3524339199, "YCOORD": 598984.22255867696, "GlobalID": "44bfbba0-3944-4146-a7b1-d2a02656363a" }, "geometry": { "type": "Point", "coordinates": [ -76.648183220273793, 39.310833321639798 ] } },
{ "type": "Feature", "properties": { "OBJECTID": 253, "Id": 0, "CAM_NUM": "723", "NOTES": " ", "LOCATION": "N Fulton Ave and Westwood Ave", "PROJ": "North Ave West", "XCOORD": 1412426.2063310901, "YCOORD": 598288.60091842699, "GlobalID": "9d56d186-f6b9-4809-b536-5bd76ac3bed1" }, "geometry": { "type": "Point", "coordinates": [ -76.646267162203102, 39.308917738751802 ] } },
{ "type": "Feature", "properties": { "OBJECTID": 254, "Id": 0, "CAM_NUM": "724", "NOTES": " ", "LOCATION": "W North Ave and N Fulton Ave", "PROJ": "North Ave West", "XCOORD": 1412422.7798287601, "YCOORD": 598674.04470133805, "GlobalID": "0b1b47b6-b4b0-43e1-9e30-75661d6f555d" }, "geometry": { "type": "Point", "coordinates": [ -76.646273993423193, 39.309975996260498 ] } },
{ "type": "Feature", "properties": { "OBJECTID": 255, "Id": 0, "CAM_NUM": "725", "NOTES": " ", "LOCATION": "N Fulton Ave and Walbrook Ave", "PROJ": "North Ave West", "XCOORD": 1412330.34234959, "YCOORD": 599003.83964541601, "GlobalID": "8b19c17b-aa70-402a-92fc-63dff65e29d0" }, "geometry": { "type": "Point", "coordinates": [ -76.646596163416802, 39.310882418224402 ] } },
{ "type": "Feature", "properties": { "OBJECTID": 256, "Id": 0, "CAM_NUM": "726", "NOTES": " ", "LOCATION": "N Mount St and Westwood Ave", "PROJ": "North Ave West", "XCOORD": 1412781.7581134301, "YCOORD": 598301.66257208597, "GlobalID": "c8a4e196-6ec7-40d4-8888-3786933fa1d2" }, "geometry": { "type": "Point", "coordinates": [ -76.645010450718303, 39.308949809820497 ] } },
{ "type": "Feature", "properties": { "OBJECTID": 257, "Id": 0, "CAM_NUM": "727", "NOTES": " ", "LOCATION": "W North Ave and N Carey St", "PROJ": "North Ave West", "XCOORD": 1413140.3554933399, "YCOORD": 598713.78838825203, "GlobalID": "ece9961b-3bb4-4737-a19a-680dde2d3fed" }, "geometry": { "type": "Point", "coordinates": [ -76.643737470983297, 39.310077449956502 ] } },
{ "type": "Feature", "properties": { "OBJECTID": 258, "Id": 0, "CAM_NUM": "728", "NOTES": " ", "LOCATION": "W North Ave and Pennsylvania Ave", "PROJ": "North Ave West", "XCOORD": 1413493.8387102601, "YCOORD": 598688.85471108602, "GlobalID": "b82ca54c-fc71-41b8-9071-9d84e3b9d8a8" }, "geometry": { "type": "Point", "coordinates": [ -76.642488574180106, 39.310005201520397 ] } },
{ "type": "Feature", "properties": { "OBJECTID": 259, "Id": 0, "CAM_NUM": "729", "NOTES": " ", "LOCATION": "Cumberland St and N Calhoun St", "PROJ": "North Ave West", "XCOORD": 1413246.1567909301, "YCOORD": 597930.20563784195, "GlobalID": "91bdbcb3-f537-495d-aa32-9c70e2b9132d" }, "geometry": { "type": "Point", "coordinates": [ -76.643374377833595, 39.307925019482298 ] } },
{ "type": "Feature", "properties": { "OBJECTID": 260, "Id": 0, "CAM_NUM": "730", "NOTES": " ", "LOCATION": "Cumberland St and Pennsylvania Ave", "PROJ": "North Ave West", "XCOORD": 1413734.34511901, "YCOORD": 598423.19743400801, "GlobalID": "ee48070a-0099-42db-a231-d715103b886d" }, "geometry": { "type": "Point", "coordinates": [ -76.641642289038103, 39.309273260892297 ] } },
{ "type": "Feature", "properties": { "OBJECTID": 261, "Id": 0, "CAM_NUM": "731", "NOTES": " ", "LOCATION": "W North Ave and Division St", "PROJ": "North Ave West", "XCOORD": 1414107.02744451, "YCOORD": 598770.13177950704, "GlobalID": "e3fc47b3-9c5a-43b5-85ad-52e577f44d76" }, "geometry": { "type": "Point", "coordinates": [ -76.640320379995799, 39.310221731501201 ] } },
{ "type": "Feature", "properties": { "OBJECTID": 262, "Id": 0, "CAM_NUM": "732", "NOTES": " ", "LOCATION": "Whitelock St and Woodbrook Ave", "PROJ": "North Ave West", "XCOORD": 1413847.32356758, "YCOORD": 598880.99245017802, "GlobalID": "14fa98fa-ca82-4d2a-8794-5142f58dae31" }, "geometry": { "type": "Point", "coordinates": [ -76.641236659237407, 39.310528900732102 ] } },
{ "type": "Feature", "properties": { "OBJECTID": 263, "Id": 0, "CAM_NUM": "733", "NOTES": " ", "LOCATION": "Etting St and Whitelock St", "PROJ": "North Ave West", "XCOORD": 1414018.6545897599, "YCOORD": 598997.78388325905, "GlobalID": "729baeb1-37bb-4a90-ac63-764581aabcb6" }, "geometry": { "type": "Point", "coordinates": [ -76.6406295311223, 39.310847696754799 ] } },
{ "type": "Feature", "properties": { "OBJECTID": 264, "Id": 0, "CAM_NUM": "734", "NOTES": " ", "LOCATION": "Whitelock St and Francis St", "PROJ": "North Ave West", "XCOORD": 1414142.32428992, "YCOORD": 599117.68554633902, "GlobalID": "ad052875-9106-440c-ad8e-2f1c026c53f6" }, "geometry": { "type": "Point", "coordinates": [ -76.640190796249001, 39.311175544487597 ] } },
{ "type": "Feature", "properties": { "OBJECTID": 265, "Id": 0, "CAM_NUM": "735", "NOTES": " ", "LOCATION": "Druid Hill Ave and Whitelock St", "PROJ": "North Ave West", "XCOORD": 1414336.5013949999, "YCOORD": 599268.73084792495, "GlobalID": "768b706f-0975-40b6-89dd-f1a7be625c59" }, "geometry": { "type": "Point", "coordinates": [ -76.639502438095505, 39.311588129968797 ] } },
{ "type": "Feature", "properties": { "OBJECTID": 266, "Id": 0, "CAM_NUM": "737", "NOTES": " ", "LOCATION": "W North and Bentalou St", "PROJ": "North Ave West", "XCOORD": 1410233.7556635099, "YCOORD": 598490.10379625903, "GlobalID": "8816969a-e3ee-4b4c-91e6-04ea94705102" }, "geometry": { "type": "Point", "coordinates": [ -76.654012660751107, 39.309494025966501 ] } },
{ "type": "Feature", "properties": { "OBJECTID": 267, "Id": 0, "CAM_NUM": "736", "NOTES": " ", "LOCATION": "W North Ave and McCulloh St", "PROJ": "North Ave West", "XCOORD": 1415043.65122743, "YCOORD": 598782.31351366604, "GlobalID": "849ecae0-146c-49d3-9022-6b1cfd220148" }, "geometry": { "type": "Point", "coordinates": [ -76.637010089067601, 39.310244997702597 ] } },
{ "type": "Feature", "properties": { "OBJECTID": 268, "Id": 0, "CAM_NUM": "801", "NOTES": " ", "LOCATION": "Reisterstown Rd and Keyworth Ave", "PROJ": "Park Heights", "XCOORD": 1407655.010821, "YCOORD": 606916.00361108803, "GlobalID": "461de00e-5d99-477e-b66c-f980c96e577b" }, "geometry": { "type": "Point", "coordinates": [ -76.663016191252296, 39.3326534223254 ] } },
{ "type": "Feature", "properties": { "OBJECTID": 269, "Id": 0, "CAM_NUM": "802", "NOTES": " ", "LOCATION": "Reisterstown Rd and Shirley Ave", "PROJ": "Park Heights", "XCOORD": 1407368.7686113401, "YCOORD": 607380.03352291905, "GlobalID": "d7351a2e-4fb7-4616-ae35-36646c3765ab" }, "geometry": { "type": "Point", "coordinates": [ -76.664022082862601, 39.333930286734898 ] } },
{ "type": "Feature", "properties": { "OBJECTID": 270, "Id": 0, "CAM_NUM": "803", "NOTES": " ", "LOCATION": "Towonda Ave and Oswego Ave", "PROJ": "Park Heights", "XCOORD": 1406808.4790495001, "YCOORD": 607589.58658149804, "GlobalID": "b98cab18-1f65-4148-94f4-e090f3f58544" }, "geometry": { "type": "Point", "coordinates": [ -76.666000154900701, 39.334511247306303 ] } },
{ "type": "Feature", "properties": { "OBJECTID": 271, "Id": 0, "CAM_NUM": "804", "NOTES": " ", "LOCATION": "Reisterstown Rd and Grantley Ave", "PROJ": "Park Heights", "XCOORD": 1406546.04322268, "YCOORD": 608681.35014601098, "GlobalID": "c869ab3a-9163-48d7-91da-a3011dd02472" }, "geometry": { "type": "Point", "coordinates": [ -76.666913864598598, 39.337511252567403 ] } },
{ "type": "Feature", "properties": { "OBJECTID": 272, "Id": 0, "CAM_NUM": "805", "NOTES": " ", "LOCATION": "Boarman Ave and Willowdale Ave", "PROJ": "Park Heights", "XCOORD": 1405819.7146228401, "YCOORD": 608577.30179767299, "GlobalID": "31a14593-0ee0-474b-bb53-642ae0b898cf" }, "geometry": { "type": "Point", "coordinates": [ -76.669483104147005, 39.3372328418439 ] } },